id,name,population,state,latitude,longitude,created_at,updated_at
1,New York,8363710,NY,40.7127837,-74.0059413,2014-11-01 03:56:32 UTC,2014-11-01 03:56:32 UTC
2,Los Angeles,3833995,CA,34.0522342,-118.2436849,2014-11-01 03:56:33 UTC,2014-11-01 03:56:33 UTC
3,Chicago,2853114,IL,41.8781136,-87.6297982,2014-11-01 03:56:33 UTC,2014-11-01 03:56:33 UTC
4,Houston,2242193,TX,29.7601927,-95.36938959999999,2014-11-01 03:56:33 UTC,2014-11-01 03:56:33 UTC
5,Phoenix,1567924,AZ,33.4483771,-112.0740373,2014-11-01 03:56:33 UTC,2014-11-01 03:56:33 UTC
6,Philadelphia,1447395,PA,39.952335,-75.16378900000001,2014-11-01 03:56:33 UTC,2014-11-01 03:56:33 UTC
7,San Antonio,1351305,TX,29.4241219,-98.49362819999999,2014-11-01 03:56:33 UTC,2014-11-01 03:56:33 UTC
8,Dallas,1279910,TX,32.7801399,-96.80045109999999,2014-11-01 03:56:33 UTC,2014-11-01 03:56:33 UTC
9,San Diego,1279329,CA,32.715738,-117.1610838,2014-11-01 03:56:33 UTC,2014-11-01 03:56:33 UTC
10,San Jose,948279,CA,37.3393857,-121.8949555,2014-11-01 03:56:33 UTC,2014-11-01 03:56:33 UTC
11,Detroit,912062,MI,42.331427,-83.0457538,2014-11-01 03:56:33 UTC,2014-11-01 03:56:33 UTC
12,San Francisco,808976,CA,37.7749295,-122.4194155,2014-11-01 03:56:33 UTC,2014-11-01 03:56:33 UTC
13,Jacksonville,807815,FL,30.3321838,-81.65565099999999,2014-11-01 03:56:34 UTC,2014-11-01 03:56:34 UTC
14,Indianapolis,798382,IN,39.768403,-86.158068,2014-11-01 03:56:35 UTC,2014-11-01 03:56:35 UTC
15,Austin,757688,TX,30.267153,-97.7430608,2014-11-01 03:56:35 UTC,2014-11-01 03:56:35 UTC
16,Columbus,754885,OH,39.9611755,-82.99879419999999,2014-11-01 03:56:35 UTC,2014-11-01 03:56:35 UTC
17,Fort Worth,703073,TX,32.7554883,-97.3307658,2014-11-01 03:56:35 UTC,2014-11-01 03:56:35 UTC
18,Charlotte,687456,NC,35.2270869,-80.8431267,2014-11-01 03:56:35 UTC,2014-11-01 03:56:35 UTC
19,Memphis,669651,TN,35.1495343,-90.0489801,2014-11-01 03:56:35 UTC,2014-11-01 03:56:35 UTC
20,Baltimore,636919,MD,39.2903848,-76.6121893,2014-11-01 03:56:35 UTC,2014-11-01 03:56:35 UTC
21,El Paso,613190,TX,31.7775757,-106.4424559,2014-11-01 03:56:35 UTC,2014-11-01 03:56:35 UTC
22,Boston,609023,MA,42.3584308,-71.0597732,2014-11-01 03:56:35 UTC,2014-11-01 03:56:35 UTC
23,Milwaukee,604477,WI,43.0389025,-87.9064736,2014-11-01 03:56:35 UTC,2014-11-01 03:56:35 UTC
24,Denver,598707,CO,39.737567,-104.9847179,2014-11-01 03:56:35 UTC,2014-11-01 03:56:35 UTC
25,Seattle,598541,WA,47.6062095,-122.3320708,2014-11-01 03:56:35 UTC,2014-11-01 03:56:35 UTC
26,Nashville,596462,TN,36.166667,-86.783333,2014-11-01 03:56:36 UTC,2014-11-01 03:56:36 UTC
27,Washington,591833,DC,38.9071923,-77.0368707,2014-11-01 03:56:36 UTC,2014-11-01 03:56:36 UTC
28,Las Vegas,558383,NV,36.1699412,-115.1398296,2014-11-01 03:56:36 UTC,2014-11-01 03:56:36 UTC
49,Honolulu,374676,HI,21.3069444,-157.8583333,2014-11-01 03:56:37 UTC,2014-11-01 03:56:37 UTC
50,Arlington,374417,TX,32.735687,-97.10806559999999,2014-11-01 03:56:37 UTC,2014-11-01 03:56:37 UTC
51,Wichita,366046,KS,37.688889,-97.336111,2014-11-01 03:56:37 UTC,2014-11-01 03:56:37 UTC
52,St. Louis,354361,MO,38.6270025,-90.19940419999999,2014-11-01 03:56:37 UTC,2014-11-01 03:56:37 UTC
53,Tampa,340882,FL,27.950575,-82.4571776,2014-11-01 03:56:37 UTC,2014-11-01 03:56:37 UTC
54,Santa Ana,339130,CA,33.7455731,-117.8678338,2014-11-01 03:56:37 UTC,2014-11-01 03:56:37 UTC
55,Anaheim,335288,CA,33.8352932,-117.9145036,2014-11-01 03:56:37 UTC,2014-11-01 03:56:37 UTC
56,Cincinnati,333336,OH,39.1031182,-84.5120196,2014-11-01 03:56:38 UTC,2014-11-01 03:56:38 UTC
57,Bakersfield,321078,CA,35.3732921,-119.0187125,2014-11-01 03:56:38 UTC,2014-11-01 03:56:38 UTC
58,Aurora,319057,CO,39.7294319,-104.8319195,2014-11-01 03:56:38 UTC,2014-11-01 03:56:38 UTC
67,Anchorage,279243,AK,61.2180556,-149.9002778,2014-11-01 03:56:39 UTC,2014-11-01 03:56:39 UTC
68,Newark,278980,NJ,40.735657,-74.1723667,2014-11-01 03:56:39 UTC,2014-11-01 03:56:39 UTC
69,Buffalo,270919,NY,42.88644679999999,-78.8783689,2014-11-01 03:56:39 UTC,2014-11-01 03:56:39 UTC
70,Plano,267480,TX,33.0198431,-96.6988856,2014-11-01 03:56:40 UTC,2014-11-01 03:56:40 UTC
71,Henderson,252064,NV,36.0395247,-114.9817213,2014-11-01 03:56:40 UTC,2014-11-01 03:56:40 UTC
72,Lincoln,251624,NE,40.809722,-96.67527799999999,2014-11-01 03:56:40 UTC,2014-11-01 03:56:40 UTC
73,Fort Wayne,251591,IN,41.079273,-85.1393513,2014-11-01 04:05:04 UTC,2014-11-01 04:05:04 UTC
74,Glendale,251522,AZ,33.5386523,-112.1859866,2014-11-01 04:05:05 UTC,2014-11-01 04:05:05 UTC
75,Greensboro,250642,NC,36.0726354,-79.7919754,2014-11-01 04:05:06 UTC,2014-11-01 04:05:06 UTC
76,Chandler,247140,AZ,33.3061605,-111.8412502,2014-11-01 04:05:07 UTC,2014-11-01 04:05:07 UTC
77,St. Petersburg,245314,FL,27.773056,-82.64,2014-11-01 04:05:08 UTC,2014-11-01 04:05:08 UTC
78,Jersey City,241114,NJ,40.72815749999999,-74.0776417,2014-11-01 04:05:09 UTC,2014-11-01 04:05:09 UTC
79,Scottsdale,235371,AZ,33.4941704,-111.9260519,2014-11-01 04:05:10 UTC,2014-11-01 04:05:10 UTC
80,Norfolk,234220,VA,36.8507689,-76.28587259999999,2014-11-01 04:05:12 UTC,2014-11-01 04:05:12 UTC
81,Madison,231916,WI,43.0730517,-89.4012302,2014-11-01 04:05:13 UTC,2014-11-01 04:05:13 UTC
82,Orlando,230519,FL,28.5383355,-81.3792365,2014-11-01 04:05:14 UTC,2014-11-01 04:05:14 UTC
83,Birmingham,228798,AL,33.5206608,-86.80248999999999,2014-11-01 04:05:15 UTC,2014-11-01 04:05:15 UTC
84,Baton Rouge,223689,LA,30.4582829,-91.1403196,2014-11-01 04:05:16 UTC,2014-11-01 04:05:16 UTC
85,Durham,223284,NC,35.9940329,-78.898619,2014-11-01 04:05:17 UTC,2014-11-01 04:05:17 UTC
86,Laredo,221659,TX,27.5305671,-99.48032409999999,2014-11-01 04:05:18 UTC,2014-11-01 04:05:18 UTC
87,Lubbock,220483,TX,33.5778631,-101.8551665,2014-11-01 04:05:19 UTC,2014-11-01 04:05:19 UTC
88,Chesapeake,220111,VA,36.7682088,-76.2874927,2014-11-01 04:05:20 UTC,2014-11-01 04:05:20 UTC
89,Chula Vista,219318,CA,32.6400541,-117.0841955,2014-11-01 04:05:21 UTC,2014-11-01 04:05:21 UTC
90,Garland,218577,TX,32.912624,-96.63888329999999,2014-11-01 04:05:22 UTC,2014-11-01 04:05:22 UTC
91,Winston-Salem,217600,NC,36.09985959999999,-80.244216,2014-11-01 04:05:24 UTC,2014-11-01 04:05:24 UTC
92,North Las Vegas,217253,NV,36.1988592,-115.1175013,2014-11-01 04:05:26 UTC,2014-11-01 04:05:26 UTC
93,Reno,217016,NV,39.5296329,-119.8138027,2014-11-01 04:05:27 UTC,2014-11-01 04:05:27 UTC
94,Gilbert,216449,AZ,33.3528264,-111.789027,2014-11-01 04:05:28 UTC,2014-11-01 04:05:28 UTC
95,Hialeah,210542,FL,25.8575963,-80.2781057,2014-11-01 04:05:29 UTC,2014-11-01 04:05:29 UTC
96,Arlington,209969,VA,38.8799697,-77.1067698,2014-11-01 04:05:30 UTC,2014-11-01 04:05:30 UTC
97,Akron,207510,OH,41.0814447,-81.51900529999999,2014-11-01 04:05:31 UTC,2014-11-01 04:05:31 UTC
98,Irvine,207500,CA,33.6839473,-117.7946942,2014-11-01 04:05:32 UTC,2014-11-01 04:05:32 UTC
99,Rochester,206886,NY,43.16103,-77.6109219,2014-11-01 04:05:33 UTC,2014-11-01 04:05:33 UTC
100,Boise City,205314,ID,43.6187102,-116.2146068,2014-11-01 04:05:35 UTC,2014-11-01 04:05:35 UTC
101,Modesto,202967,CA,37.63909719999999,-120.9968782,2014-11-01 04:05:36 UTC,2014-11-01 04:05:36 UTC
102,Fremont,202867,CA,37.5482697,-121.9885719,2014-11-01 04:05:37 UTC,2014-11-01 04:05:37 UTC
103,Montgomery,202696,AL,32.3668052,-86.2999689,2014-11-01 04:05:38 UTC,2014-11-01 04:05:38 UTC
104,Spokane,202319,WA,47.6587802,-117.4260466,2014-11-01 04:05:39 UTC,2014-11-01 04:05:39 UTC
105,Richmond,202002,VA,37.5407246,-77.4360481,2014-11-01 04:05:40 UTC,2014-11-01 04:05:40 UTC
106,Yonkers,201588,NY,40.9312099,-73.89874689999999,2014-11-01 04:05:41 UTC,2014-11-01 04:05:41 UTC
107,Irving,201358,TX,32.8140177,-96.9488945,2014-11-01 04:05:42 UTC,2014-11-01 04:05:42 UTC
108,Shreveport,199729,LA,32.5251516,-93.7501789,2014-11-01 04:05:43 UTC,2014-11-01 04:05:43 UTC
109,San Bernardino,198580,CA,34.1083449,-117.2897652,2014-11-01 04:05:44 UTC,2014-11-01 04:05:44 UTC
110,Tacoma,197181,WA,47.2528768,-122.4442906,2014-11-01 04:05:46 UTC,2014-11-01 04:05:46 UTC
111,Glendale,197176,CA,34.1425078,-118.255075,2014-11-01 04:05:47 UTC,2014-11-01 04:05:47 UTC
112,Des Moines,197052,IA,41.6005448,-93.6091064,2014-11-01 04:05:48 UTC,2014-11-01 04:05:48 UTC
113,Augusta,194149,GA,33.4734978,-82.0105148,2014-11-01 04:05:50 UTC,2014-11-01 04:05:50 UTC
114,Grand Rapids,193396,MI,42.9633599,-85.6680863,2014-11-01 04:05:51 UTC,2014-11-01 04:05:51 UTC
115,Huntington Beach,192620,CA,33.660297,-117.9992265,2014-11-01 04:05:52 UTC,2014-11-01 04:05:52 UTC
116,Mobile,191022,AL,30.6953657,-88.0398912,2014-11-01 04:05:53 UTC,2014-11-01 04:05:53 UTC
117,Moreno Valley,190871,CA,33.9424658,-117.2296717,2014-11-01 04:05:54 UTC,2014-11-01 04:05:54 UTC
118,Little Rock,189515,AR,34.7464809,-92.28959479999999,2014-11-01 04:05:55 UTC,2014-11-01 04:05:55 UTC
119,Amarillo,187236,TX,35.2219971,-101.8312969,2014-11-01 04:05:56 UTC,2014-11-01 04:05:56 UTC
120,Columbus,186984,GA,32.4609764,-84.9877094,2014-11-01 04:05:57 UTC,2014-11-01 04:05:57 UTC
121,Oxnard,185717,CA,34.1975048,-119.1770516,2014-11-01 04:05:58 UTC,2014-11-01 04:05:58 UTC
122,Fontana,184984,CA,34.0922335,-117.435048,2014-11-01 04:05:59 UTC,2014-11-01 04:05:59 UTC
123,Knoxville,184802,TN,35.9606384,-83.9207392,2014-11-01 04:06:00 UTC,2014-11-01 04:06:00 UTC
124,Fort Lauderdale,183126,FL,26.1224386,-80.13731740000001,2014-11-01 04:06:02 UTC,2014-11-01 04:06:02 UTC
125,Salt Lake City,181698,UT,40.7607793,-111.8910474,2014-11-01 04:06:03 UTC,2014-11-01 04:06:03 UTC
126,Newport News,179614,VA,37.0870821,-76.4730122,2014-11-01 04:06:04 UTC,2014-11-01 04:06:04 UTC
127,Huntsville,176645,AL,34.7303688,-86.5861037,2014-11-01 04:06:05 UTC,2014-11-01 04:06:05 UTC
128,Tempe,175523,AZ,33.4255104,-111.9400054,2014-11-01 04:06:06 UTC,2014-11-01 04:06:06 UTC
129,Brownsville,175494,TX,25.9017472,-97.4974838,2014-11-01 04:06:07 UTC,2014-11-01 04:06:07 UTC
130,Worcester,175011,MA,42.2625932,-71.8022934,2014-11-01 04:06:08 UTC,2014-11-01 04:06:08 UTC
131,Fayetteville,174091,NC,35.0526641,-78.87835849999999,2014-11-01 04:06:09 UTC,2014-11-01 04:06:09 UTC
132,Jackson,173861,MS,32.2987573,-90.1848103,2014-11-01 04:06:10 UTC,2014-11-01 04:06:10 UTC
133,Tallahassee,171922,FL,30.4382559,-84.28073289999999,2014-11-01 04:06:11 UTC,2014-11-01 04:06:11 UTC
134,Aurora,171782,IL,41.7605849,-88.32007150000001,2014-11-01 04:06:12 UTC,2014-11-01 04:06:12 UTC
135,Ontario,171691,CA,34.0633443,-117.6508876,2014-11-01 04:06:14 UTC,2014-11-01 04:06:14 UTC
136,Providence,171557,RI,41.8239891,-71.4128343,2014-11-01 04:06:15 UTC,2014-11-01 04:06:15 UTC
137,Overland Park,171231,KS,38.9822282,-94.6707917,2014-11-01 04:06:16 UTC,2014-11-01 04:06:16 UTC
138,Rancho Cucamonga,171176,CA,34.10639889999999,-117.5931084,2014-11-01 04:06:17 UTC,2014-11-01 04:06:17 UTC
139,Chattanooga,170880,TN,35.0456297,-85.3096801,2014-11-01 04:06:18 UTC,2014-11-01 04:06:18 UTC
140,Oceanside,169684,CA,33.1958696,-117.3794834,2014-11-01 04:06:19 UTC,2014-11-01 04:06:19 UTC
141,Santa Clarita,169500,CA,34.3916641,-118.542586,2014-11-01 04:06:20 UTC,2014-11-01 04:06:20 UTC
142,Garden Grove,165796,CA,33.7739053,-117.9414477,2014-11-01 04:06:21 UTC,2014-11-01 04:06:21 UTC
143,Vancouver,163186,WA,45.6387281,-122.6614861,2014-11-01 04:06:22 UTC,2014-11-01 04:06:22 UTC
144,Grand Prairie,160641,TX,32.7459645,-96.99778459999999,2014-11-01 04:06:24 UTC,2014-11-01 04:06:24 UTC
145,Peoria,157960,AZ,33.5805955,-112.2373779,2014-11-01 04:06:25 UTC,2014-11-01 04:06:25 UTC
146,Rockford,157272,IL,42.2711311,-89.0939952,2014-11-01 04:06:26 UTC,2014-11-01 04:06:26 UTC
147,Cape Coral,156835,FL,26.5628537,-81.9495331,2014-11-01 04:06:27 UTC,2014-11-01 04:06:27 UTC
148,Springfield,156206,MO,37.2089572,-93.29229889999999,2014-11-01 04:06:28 UTC,2014-11-01 04:06:28 UTC
149,Santa Rosa,155796,CA,38.440429,-122.7140548,2014-11-01 04:06:29 UTC,2014-11-01 04:06:29 UTC
150,Sioux Falls,154997,SD,43.5445959,-96.73110340000001,2014-11-01 04:06:30 UTC,2014-11-01 04:06:30 UTC
151,Port St. Lucie,154353,FL,27.2730492,-80.3582261,2014-11-01 04:06:31 UTC,2014-11-01 04:06:31 UTC
152,Dayton,154200,OH,39.7589478,-84.1916069,2014-11-01 04:06:33 UTC,2014-11-01 04:06:33 UTC
153,Salem,153435,OR,44.9428975,-123.0350963,2014-11-01 04:06:34 UTC,2014-11-01 04:06:34 UTC
154,Pomona,152699,CA,34.055103,-117.7499909,2014-11-01 04:06:35 UTC,2014-11-01 04:06:35 UTC
155,Springfield,150640,MA,42.1014831,-72.589811,2014-11-01 04:06:36 UTC,2014-11-01 04:06:36 UTC
156,Eugene,150104,OR,44.0520691,-123.0867536,2014-11-01 04:06:37 UTC,2014-11-01 04:06:37 UTC
157,Corona,149923,CA,33.8752935,-117.5664384,2014-11-01 04:06:38 UTC,2014-11-01 04:06:38 UTC
158,Pasadena,146439,TX,29.6910625,-95.2091006,2014-11-01 04:06:39 UTC,2014-11-01 04:06:39 UTC
159,Joliet,146125,IL,41.525031,-88.0817251,2014-11-01 04:06:40 UTC,2014-11-01 04:06:40 UTC
160,Pembroke Pines,145661,FL,26.007765,-80.2962555,2014-11-01 04:06:41 UTC,2014-11-01 04:06:41 UTC
161,Paterson,145643,NJ,40.9167654,-74.17181099999999,2014-11-01 04:06:42 UTC,2014-11-01 04:06:42 UTC
162,Hampton,145494,VA,37.0298687,-76.34522179999999,2014-11-01 04:06:44 UTC,2014-11-01 04:06:44 UTC
163,Lancaster,145469,CA,34.6867846,-118.1541632,2014-11-01 04:06:45 UTC,2014-11-01 04:06:45 UTC
164,Alexandria,143885,VA,38.8048355,-77.0469214,2014-11-01 04:06:46 UTC,2014-11-01 04:06:46 UTC
165,Salinas,143640,CA,36.6777372,-121.6555013,2014-11-01 04:06:47 UTC,2014-11-01 04:06:47 UTC
166,Palmdale,143197,CA,34.5794343,-118.1164613,2014-11-01 04:06:48 UTC,2014-11-01 04:06:48 UTC
167,Naperville,143117,IL,41.7460695,-88.1618829,2014-11-01 04:06:49 UTC,2014-11-01 04:06:49 UTC
168,Pasadena,143080,CA,34.1477849,-118.1445155,2014-11-01 04:06:51 UTC,2014-11-01 04:06:51 UTC
169,Kansas City,142562,KS,39.114053,-94.6274636,2014-11-01 04:06:52 UTC,2014-11-01 04:06:52 UTC
170,Hayward,142061,CA,37.6688205,-122.0807964,2014-11-01 04:06:53 UTC,2014-11-01 04:06:53 UTC
171,Hollywood,141740,FL,26.0112014,-80.1494901,2014-11-01 04:06:54 UTC,2014-11-01 04:06:54 UTC
172,Lakewood,140989,CO,39.7047095,-105.0813734,2014-11-01 04:06:56 UTC,2014-11-01 04:06:56 UTC
173,Torrance,140820,CA,33.8358492,-118.3406288,2014-11-01 04:06:57 UTC,2014-11-01 04:06:57 UTC
174,Syracuse,138068,NY,43.0481221,-76.14742439999999,2014-11-01 04:06:58 UTC,2014-11-01 04:06:58 UTC
175,Escondido,137103,CA,33.1192068,-117.086421,2014-11-01 04:06:59 UTC,2014-11-01 04:06:59 UTC
176,Fort Collins,136509,CO,40.5852602,-105.084423,2014-11-01 04:07:00 UTC,2014-11-01 04:07:00 UTC
177,Bridgeport,136405,CT,41.1865478,-73.19517669999999,2014-11-01 04:07:02 UTC,2014-11-01 04:07:02 UTC
178,Orange,136392,CA,33.7877944,-117.8531119,2014-11-01 04:07:03 UTC,2014-11-01 04:07:03 UTC
179,Warren,133939,MI,42.491944,-83.023889,2014-11-01 04:07:04 UTC,2014-11-01 04:07:04 UTC
180,Elk Grove,133003,CA,38.4087993,-121.3716178,2014-11-01 04:07:05 UTC,2014-11-01 04:07:05 UTC
181,Savannah,132410,GA,32.0835407,-81.09983419999999,2014-11-01 04:07:06 UTC,2014-11-01 04:07:06 UTC
182,Mesquite,132123,TX,32.76679550000001,-96.5991593,2014-11-01 04:07:07 UTC,2014-11-01 04:07:07 UTC
183,Sunnyvale,132109,CA,37.36883,-122.0363496,2014-11-01 04:07:08 UTC,2014-11-01 04:07:08 UTC
184,Fullerton,131868,CA,33.8703596,-117.9242966,2014-11-01 04:07:09 UTC,2014-11-01 04:07:09 UTC
185,McAllen,129776,TX,26.2034071,-98.23001239999999,2014-11-01 04:07:10 UTC,2014-11-01 04:07:10 UTC
186,Cary,129545,NC,35.79154,-78.7811169,2014-11-01 04:07:11 UTC,2014-11-01 04:07:11 UTC
187,Cedar Rapids,128056,IA,41.9778795,-91.6656232,2014-11-01 04:07:12 UTC,2014-11-01 04:07:12 UTC
188,Sterling Heights,127160,MI,42.5803122,-83.0302033,2014-11-01 04:07:14 UTC,2014-11-01 04:07:14 UTC
189,Columbia,127029,SC,34.0007104,-81.0348144,2014-11-01 04:07:15 UTC,2014-11-01 04:07:15 UTC
190,Coral Springs,125783,FL,26.271192,-80.2706044,2014-11-01 04:07:16 UTC,2014-11-01 04:07:16 UTC
191,Carrollton,125595,TX,32.9756415,-96.8899636,2014-11-01 04:07:17 UTC,2014-11-01 04:07:17 UTC
192,Elizabeth,124755,NJ,40.6639916,-74.2107006,2014-11-01 04:07:18 UTC,2014-11-01 04:07:18 UTC
193,Hartford,124062,CT,41.76371109999999,-72.6850932,2014-11-01 04:07:19 UTC,2014-11-01 04:07:19 UTC
194,Waco,124009,TX,31.549333,-97.1466695,2014-11-01 04:07:20 UTC,2014-11-01 04:07:20 UTC
195,Bellevue,123771,WA,47.610377,-122.2006786,2014-11-01 04:07:21 UTC,2014-11-01 04:07:21 UTC
196,New Haven,123669,CT,41.308274,-72.9278835,2014-11-01 04:07:22 UTC,2014-11-01 04:07:22 UTC
197,West Valley City,123447,UT,40.6916132,-112.0010501,2014-11-01 04:07:23 UTC,2014-11-01 04:07:23 UTC
198,Topeka,123446,KS,39.0558235,-95.68901849999999,2014-11-01 04:07:24 UTC,2014-11-01 04:07:24 UTC
199,Thousand Oaks,123091,CA,34.1705609,-118.8375937,2014-11-01 04:07:26 UTC,2014-11-01 04:07:26 UTC
200,El Monte,121791,CA,34.0686206,-118.0275667,2014-11-01 04:07:27 UTC,2014-11-01 04:07:27 UTC
201,McKinney,121211,TX,33.1972465,-96.6397822,2014-11-01 04:07:28 UTC,2014-11-01 04:07:28 UTC
202,Concord,121160,CA,37.9779776,-122.0310733,2014-11-01 04:07:29 UTC,2014-11-01 04:07:29 UTC
203,Visalia,121040,CA,36.3302284,-119.2920585,2014-11-01 04:07:30 UTC,2014-11-01 04:07:30 UTC
204,Simi Valley,120543,CA,34.2694474,-118.781482,2014-11-01 04:07:31 UTC,2014-11-01 04:07:31 UTC
205,Olathe,119993,KS,38.8813958,-94.81912849999999,2014-11-01 04:07:32 UTC,2014-11-01 04:07:32 UTC
206,Clarksville,119735,TN,36.5297706,-87.3594528,2014-11-01 04:07:33 UTC,2014-11-01 04:07:33 UTC
207,Denton,119454,TX,33.2148412,-97.13306829999999,2014-11-01 04:07:34 UTC,2014-11-01 04:07:34 UTC
208,Stamford,119303,CT,41.0534302,-73.5387341,2014-11-01 04:07:35 UTC,2014-11-01 04:07:35 UTC
209,Provo,118581,UT,40.2338438,-111.6585337,2014-11-01 04:07:37 UTC,2014-11-01 04:07:37 UTC
210,Springfield,117352,IL,39.78172130000001,-89.6501481,2014-11-01 04:07:38 UTC,2014-11-01 04:07:38 UTC
211,Killeen,116934,TX,31.1171194,-97.72779589999999,2014-11-01 04:07:39 UTC,2014-11-01 04:07:39 UTC
212,Abilene,116484,TX,32.4487364,-99.73314390000002,2014-11-01 04:07:40 UTC,2014-11-01 04:07:40 UTC
213,Evansville,116309,IN,37.9715592,-87.5710898,2014-11-01 04:07:41 UTC,2014-11-01 04:07:41 UTC
214,Gainesville,114916,FL,29.6516344,-82.32482619999999,2014-11-01 04:07:42 UTC,2014-11-01 04:07:42 UTC
215,Vallejo,114729,CA,38.1040864,-122.2566367,2014-11-01 04:07:43 UTC,2014-11-01 04:07:43 UTC
216,Ann Arbor,114386,MI,42.2808256,-83.7430378,2014-11-01 04:07:44 UTC,2014-11-01 04:07:44 UTC
217,Peoria,114114,IL,40.6936488,-89.5889864,2014-11-01 04:07:45 UTC,2014-11-01 04:07:45 UTC
218,Lansing,113968,MI,42.732535,-84.5555347,2014-11-01 04:07:46 UTC,2014-11-01 04:07:46 UTC
219,Lafayette,113656,LA,30.2240897,-92.0198427,2014-11-01 04:07:48 UTC,2014-11-01 04:07:48 UTC
220,Thornton,113429,CO,39.8680412,-104.9719243,2014-11-01 04:07:49 UTC,2014-11-01 04:07:49 UTC
221,Athens,113398,GA,33.95,-83.383333,2014-11-01 04:07:50 UTC,2014-11-01 04:07:50 UTC
222,Flint,112900,MI,43.0125274,-83.6874562,2014-11-01 04:07:51 UTC,2014-11-01 04:07:51 UTC
223,Inglewood,112714,CA,33.9616801,-118.3531311,2014-11-01 04:07:52 UTC,2014-11-01 04:07:52 UTC
224,Roseville,112660,CA,38.7521235,-121.2880059,2014-11-01 04:07:54 UTC,2014-11-01 04:07:54 UTC
225,Charleston,111978,SC,32.7764749,-79.93105120000001,2014-11-01 04:07:55 UTC,2014-11-01 04:07:55 UTC
226,Beaumont,110553,TX,30.080174,-94.1265562,2014-11-01 04:07:56 UTC,2014-11-01 04:07:56 UTC
227,Independence,110440,MO,39.0911161,-94.41550679999999,2014-11-01 04:07:57 UTC,2014-11-01 04:07:57 UTC
228,Victorville,110318,CA,34.5361067,-117.2911565,2014-11-01 04:07:58 UTC,2014-11-01 04:07:58 UTC
229,Santa Clara,110200,CA,37.3541079,-121.9552356,2014-11-01 04:07:59 UTC,2014-11-01 04:07:59 UTC
230,Costa Mesa,110080,CA,33.6411316,-117.9186689,2014-11-01 04:08:00 UTC,2014-11-01 04:08:00 UTC
231,Miami Gardens,109346,FL,25.9420377,-80.2456045,2014-11-01 04:08:01 UTC,2014-11-01 04:08:01 UTC
232,Manchester,108586,NH,42.9956397,-71.4547891,2014-11-01 04:08:02 UTC,2014-11-01 04:08:02 UTC
233,Miramar,108484,FL,25.9860762,-80.30356019999999,2014-11-01 04:08:03 UTC,2014-11-01 04:08:03 UTC
234,Downey,107587,CA,33.9401088,-118.1331593,2014-11-01 04:08:05 UTC,2014-11-01 04:08:05 UTC
235,Arvada,107361,CO,39.8027644,-105.0874842,2014-11-01 04:08:06 UTC,2014-11-01 04:08:06 UTC
236,Allentown,107250,PA,40.6084305,-75.4901833,2014-11-01 04:08:07 UTC,2014-11-01 04:08:07 UTC
237,Westminster,107056,CO,39.8366528,-105.0372046,2014-11-01 04:08:08 UTC,2014-11-01 04:08:08 UTC
238,Waterbury,107037,CT,41.5581525,-73.0514965,2014-11-01 04:08:09 UTC,2014-11-01 04:08:09 UTC
239,Norman,106957,OK,35.2225668,-97.4394777,2014-11-01 04:08:10 UTC,2014-11-01 04:08:10 UTC
240,Midland,106561,TX,31.9973456,-102.0779146,2014-11-01 04:08:11 UTC,2014-11-01 04:08:11 UTC
241,Elgin,106330,IL,42.0354084,-88.2825668,2014-11-01 04:08:12 UTC,2014-11-01 04:08:12 UTC
242,West Covina,105790,CA,34.0686208,-117.9389526,2014-11-01 04:08:13 UTC,2014-11-01 04:08:13 UTC
243,Clearwater,105774,FL,27.9658533,-82.8001026,2014-11-01 04:08:14 UTC,2014-11-01 04:08:14 UTC
244,Cambridge,105596,MA,42.3736158,-71.10973349999999,2014-11-01 04:08:15 UTC,2014-11-01 04:08:15 UTC
245,Pueblo,104951,CO,38.2544472,-104.6091409,2014-11-01 04:08:17 UTC,2014-11-01 04:08:17 UTC
246,West Jordan,104447,UT,40.6096698,-111.9391031,2014-11-01 04:08:18 UTC,2014-11-01 04:08:18 UTC
247,Round Rock,104446,TX,30.5082551,-97.678896,2014-11-01 04:08:19 UTC,2014-11-01 04:08:19 UTC
248,Billings,103994,MT,45.7832856,-108.5006904,2014-11-01 04:08:20 UTC,2014-11-01 04:08:20 UTC
249,Erie,103817,PA,42.12922409999999,-80.085059,2014-11-01 04:08:21 UTC,2014-11-01 04:08:21 UTC
250,South Bend,103807,IN,41.6763545,-86.25198979999999,2014-11-01 04:08:22 UTC,2014-11-01 04:08:22 UTC
251,Ventura,103706,CA,34.274646,-119.2290316,2014-11-01 04:08:23 UTC,2014-11-01 04:08:23 UTC
252,Fairfield,103683,CA,38.24935809999999,-122.0399663,2014-11-01 04:08:25 UTC,2014-11-01 04:08:25 UTC
253,Lowell,103615,MA,42.6334247,-71.31617179999999,2014-11-01 04:08:26 UTC,2014-11-01 04:08:26 UTC
254,Norwalk,102982,CA,33.9022367,-118.081733,2014-11-01 04:08:27 UTC,2014-11-01 04:08:27 UTC
255,Burbank,102968,CA,34.1808392,-118.3089661,2014-11-01 04:08:28 UTC,2014-11-01 04:08:28 UTC
256,Richmond,102285,CA,37.9357576,-122.3477486,2014-11-01 04:08:29 UTC,2014-11-01 04:08:29 UTC
257,Pompano Beach,101943,FL,26.2378597,-80.1247667,2014-11-01 04:08:30 UTC,2014-11-01 04:08:30 UTC
258,High Point,101835,NC,35.9556923,-80.0053176,2014-11-01 04:08:31 UTC,2014-11-01 04:08:31 UTC
259,Murfreesboro,101753,TN,35.8456213,-86.39027,2014-11-01 04:08:32 UTC,2014-11-01 04:08:32 UTC
260,Lewisville,101624,TX,33.046233,-96.994174,2014-11-01 04:08:33 UTC,2014-11-01 04:08:33 UTC
261,Richardson,101589,TX,32.9483335,-96.7298519,2014-11-01 04:08:34 UTC,2014-11-01 04:08:34 UTC
262,Daly City,101514,CA,37.6879241,-122.4702079,2014-11-01 04:08:36 UTC,2014-11-01 04:08:36 UTC
263,Berkeley,101371,CA,37.8715926,-122.272747,2014-11-01 04:08:37 UTC,2014-11-01 04:08:37 UTC
264,Gresham,101221,OR,45.5001357,-122.4302013,2014-11-01 04:08:38 UTC,2014-11-01 04:08:38 UTC
265,Wichita Falls,101202,TX,33.9137085,-98.4933873,2014-11-01 04:08:39 UTC,2014-11-01 04:08:39 UTC
266,Green Bay,101025,WI,44.51915899999999,-88.019826,2014-11-01 04:08:40 UTC,2014-11-01 04:08:40 UTC
267,Davenport,100827,IA,41.5236437,-90.5776367,2014-11-01 04:08:41 UTC,2014-11-01 04:08:41 UTC
268,Palm Bay,100786,FL,28.0344621,-80.5886646,2014-11-01 04:08:42 UTC,2014-11-01 04:08:42 UTC
269,Columbia,100733,MO,38.9517053,-92.3340724,2014-11-01 04:08:43 UTC,2014-11-01 04:08:43 UTC
270,Portsmouth,100577,VA,36.8354258,-76.2982742,2014-11-01 04:08:44 UTC,2014-11-01 04:08:44 UTC
271,Rochester,100413,MN,44.0234,-92.46294999999999,2014-11-01 04:08:45 UTC,2014-11-01 04:08:45 UTC
272,Antioch,100219,CA,38.0049214,-121.805789,2014-11-01 04:08:47 UTC,2014-11-01 04:08:47 UTC
273,Wilmington,100192,NC,34.2257255,-77.9447102,2014-11-01 04:08:48 UTC,2014-11-01 04:08:48 UTC
274,Centennial,99680,CO,39.5807452,-104.8771726,2014-11-01 04:08:49 UTC,2014-11-01 04:08:49 UTC
275,Odessa,98801,TX,31.8456816,-102.3676431,2014-11-01 04:08:50 UTC,2014-11-01 04:08:50 UTC
276,West Palm Beach,98779,FL,26.7153424,-80.0533746,2014-11-01 04:08:51 UTC,2014-11-01 04:08:51 UTC
277,Rialto,98700,CA,34.1064001,-117.3703235,2014-11-01 04:08:52 UTC,2014-11-01 04:08:52 UTC
278,Everett,98212,WA,47.9789848,-122.2020794,2014-11-01 04:08:53 UTC,2014-11-01 04:08:53 UTC
279,Murrieta,97918,CA,33.5539143,-117.2139232,2014-11-01 04:08:54 UTC,2014-11-01 04:08:54 UTC
280,Tyler,97705,TX,32.3512601,-95.30106239999999,2014-11-01 04:08:55 UTC,2014-11-01 04:08:55 UTC
281,Temecula,97100,CA,33.4936391,-117.1483648,2014-11-01 04:08:56 UTC,2014-11-01 04:08:56 UTC
282,Kenosha,96950,WI,42.5847425,-87.82118539999999,2014-11-01 04:08:58 UTC,2014-11-01 04:08:58 UTC
283,Frisco,96676,TX,33.1506744,-96.82361159999999,2014-11-01 04:08:59 UTC,2014-11-01 04:08:59 UTC
284,Sandy,96660,UT,40.57250000000001,-111.859722,2014-11-01 04:09:00 UTC,2014-11-01 04:09:00 UTC
285,South Gate,96640,CA,33.954737,-118.2120161,2014-11-01 04:09:01 UTC,2014-11-01 04:09:01 UTC
286,Carlsbad,96374,CA,33.1580933,-117.3505939,2014-11-01 04:09:02 UTC,2014-11-01 04:09:02 UTC
287,Gary,95920,IN,41.5933696,-87.3464271,2014-11-01 04:09:03 UTC,2014-11-01 04:09:03 UTC
288,Mission Viejo,94461,CA,33.6000232,-117.6719953,2014-11-01 04:09:04 UTC,2014-11-01 04:09:04 UTC
289,North Charleston,94407,SC,32.8546197,-79.9748103,2014-11-01 04:09:05 UTC,2014-11-01 04:09:05 UTC
290,Boulder,94171,CO,40.0149856,-105.2705456,2014-11-01 04:09:06 UTC,2014-11-01 04:09:06 UTC
291,Compton,93851,CA,33.8958492,-118.2200712,2014-11-01 04:09:07 UTC,2014-11-01 04:09:07 UTC
292,Hillsboro,93638,OR,45.5228939,-122.989827,2014-11-01 04:09:09 UTC,2014-11-01 04:09:09 UTC
293,Albany,93539,NY,42.6525793,-73.7562317,2014-11-01 04:09:10 UTC,2014-11-01 04:09:10 UTC
294,Fargo,93531,ND,46.8771863,-96.7898034,2014-11-01 04:09:11 UTC,2014-11-01 04:09:11 UTC
295,Lakeland,93333,FL,28.0394654,-81.9498042,2014-11-01 04:09:12 UTC,2014-11-01 04:09:12 UTC
296,Orem,93250,UT,40.2968979,-111.6946475,2014-11-01 04:09:13 UTC,2014-11-01 04:09:13 UTC
297,Brockton,93007,MA,42.0834335,-71.0183787,2014-11-01 04:09:14 UTC,2014-11-01 04:09:14 UTC
298,Roanoke,92967,VA,37.2709704,-79.9414266,2014-11-01 04:09:15 UTC,2014-11-01 04:09:15 UTC
299,Broken Arrow,92931,OK,36.060949,-95.7974526,2014-11-01 04:09:16 UTC,2014-11-01 04:09:16 UTC
300,Surprise,92897,AZ,33.6292337,-112.3679279,2014-11-01 04:09:17 UTC,2014-11-01 04:09:17 UTC
301,Macon,92775,GA,32.8406946,-83.6324022,2014-11-01 04:09:18 UTC,2014-11-01 04:09:18 UTC
302,El Cajon,92718,CA,32.7947731,-116.9625269,2014-11-01 04:09:19 UTC,2014-11-01 04:09:19 UTC
303,Carson,92366,CA,33.8316745,-118.281693,2014-11-01 04:09:21 UTC,2014-11-01 04:09:21 UTC
304,Quincy,92339,MA,42.2528772,-71.0022705,2014-11-01 04:09:22 UTC,2014-11-01 04:09:22 UTC
305,Clovis,92318,CA,36.8252277,-119.7029194,2014-11-01 04:09:23 UTC,2014-11-01 04:09:23 UTC
306,San Mateo,92256,CA,37.5629917,-122.3255254,2014-11-01 04:09:24 UTC,2014-11-01 04:09:24 UTC
307,Vacaville,92219,CA,38.3565773,-121.9877444,2014-11-01 04:09:25 UTC,2014-11-01 04:09:25 UTC
308,San Angelo,91880,TX,31.4637723,-100.4370375,2014-11-01 04:09:26 UTC,2014-11-01 04:09:26 UTC
309,Las Cruces,91865,NM,32.3199396,-106.7636538,2014-11-01 04:09:28 UTC,2014-11-01 04:09:28 UTC
310,Beaverton,91757,OR,45.48706199999999,-122.8037102,2014-11-01 04:09:29 UTC,2014-11-01 04:09:29 UTC
311,Greeley,91492,CO,40.4233142,-104.7091322,2014-11-01 04:09:30 UTC,2014-11-01 04:09:30 UTC
312,New Bedford,91365,MA,41.6362152,-70.93420499999999,2014-11-01 04:09:31 UTC,2014-11-01 04:09:31 UTC
313,Livonia,91220,MI,42.36837,-83.35270969999999,2014-11-01 04:09:32 UTC,2014-11-01 04:09:32 UTC
314,Vista,91144,CA,33.2000368,-117.2425355,2014-11-01 04:09:33 UTC,2014-11-01 04:09:33 UTC
315,Fall River,90931,MA,41.7014912,-71.1550451,2014-11-01 04:09:34 UTC,2014-11-01 04:09:34 UTC
316,Waukegan,90788,IL,42.3636331,-87.84479379999999,2014-11-01 04:09:35 UTC,2014-11-01 04:09:35 UTC
317,Lawrence,90520,KS,38.9716689,-95.2352501,2014-11-01 04:09:36 UTC,2014-11-01 04:09:36 UTC
318,Davie,90238,FL,26.0764783,-80.25211569999999,2014-11-01 04:09:37 UTC,2014-11-01 04:09:37 UTC
319,Tuscaloosa,90221,AL,33.2098407,-87.56917349999999,2014-11-01 04:09:39 UTC,2014-11-01 04:09:39 UTC
320,Redding,90201,CA,40.5865396,-122.3916754,2014-11-01 04:09:40 UTC,2014-11-01 04:09:40 UTC
321,Lawton,90091,OK,34.6035669,-98.39592909999999,2014-11-01 04:09:41 UTC,2014-11-01 04:09:41 UTC
322,Yuma,90041,AZ,32.6926512,-114.6276916,2014-11-01 04:09:42 UTC,2014-11-01 04:09:42 UTC
323,Sunrise,89026,FL,26.1669711,-80.25659499999999,2014-11-01 04:09:43 UTC,2014-11-01 04:09:43 UTC
324,Westminster,88975,CA,33.7513419,-117.9939921,2014-11-01 04:09:44 UTC,2014-11-01 04:09:44 UTC
325,Sparks,88602,NV,39.5349112,-119.7526886,2014-11-01 04:09:45 UTC,2014-11-01 04:09:45 UTC
326,Santa Monica,87664,CA,34.0194543,-118.4911912,2014-11-01 04:09:46 UTC,2014-11-01 04:09:46 UTC
327,Roswell,87657,GA,34.0232431,-84.3615555,2014-11-01 04:09:47 UTC,2014-11-01 04:09:47 UTC
328,Lynn,86957,MA,42.46676300000001,-70.9494938,2014-11-01 04:09:48 UTC,2014-11-01 04:09:48 UTC
329,Nashua,86576,NH,42.7653662,-71.46756599999999,2014-11-01 04:09:49 UTC,2014-11-01 04:09:49 UTC
330,Dearborn,86477,MI,42.3222599,-83.17631449999999,2014-11-01 04:09:51 UTC,2014-11-01 04:09:51 UTC
331,Santa Maria,86356,CA,34.9530337,-120.4357191,2014-11-01 04:09:52 UTC,2014-11-01 04:09:52 UTC
332,Spokane Valley,86144,WA,47.6732281,-117.2393748,2014-11-01 04:09:53 UTC,2014-11-01 04:09:53 UTC
333,Santa Barbara,86093,CA,34.4208305,-119.6981901,2014-11-01 04:09:54 UTC,2014-11-01 04:09:54 UTC
334,Alhambra,85953,CA,34.095287,-118.1270146,2014-11-01 04:09:55 UTC,2014-11-01 04:09:55 UTC
335,Longmont,85928,CO,40.1672068,-105.1019275,2014-11-01 04:09:56 UTC,2014-11-01 04:09:56 UTC
336,Hesperia,85883,CA,34.4263886,-117.3008784,2014-11-01 04:09:57 UTC,2014-11-01 04:09:57 UTC
337,Boca Raton,85670,FL,26.3683064,-80.1289321,2014-11-01 04:09:58 UTC,2014-11-01 04:09:58 UTC
338,Fort Smith,84716,AR,35.3859242,-94.39854749999999,2014-11-01 04:09:59 UTC,2014-11-01 04:09:59 UTC
339,Miami Beach,84633,FL,25.790654,-80.1300455,2014-11-01 04:10:01 UTC,2014-11-01 04:10:01 UTC
340,Warwick,84483,RI,41.7001009,-71.4161671,2014-11-01 04:10:02 UTC,2014-11-01 04:10:02 UTC
341,Indio,84443,CA,33.7205771,-116.2155619,2014-11-01 04:10:03 UTC,2014-11-01 04:10:03 UTC
342,Citrus Heights,84432,CA,38.7071247,-121.2810611,2014-11-01 04:10:04 UTC,2014-11-01 04:10:04 UTC
343,Deltona,84408,FL,28.9005446,-81.26367379999999,2014-11-01 04:10:05 UTC,2014-11-01 04:10:05 UTC
344,Federal Way,84309,WA,47.3223221,-122.3126222,2014-11-01 04:10:06 UTC,2014-11-01 04:10:06 UTC
345,Hawthorne,84305,CA,33.9164032,-118.3525748,2014-11-01 04:10:07 UTC,2014-11-01 04:10:07 UTC
346,Duluth,84284,MN,46.78667189999999,-92.1004852,2014-11-01 04:10:08 UTC,2014-11-01 04:10:08 UTC
347,Lee's Summit,84208,MO,38.9108408,-94.3821724,2014-11-01 04:10:10 UTC,2014-11-01 04:10:10 UTC
348,College Station,84128,TX,30.627977,-96.3344068,2014-11-01 04:10:11 UTC,2014-11-01 04:10:11 UTC
349,Yakima,84074,WA,46.6020711,-120.5058987,2014-11-01 04:10:12 UTC,2014-11-01 04:10:12 UTC
350,Kent,83978,WA,47.3809335,-122.2348431,2014-11-01 04:10:13 UTC,2014-11-01 04:10:13 UTC
351,Chico,83791,CA,39.7284944,-121.8374777,2014-11-01 04:10:14 UTC,2014-11-01 04:10:14 UTC
352,Plantation,83628,FL,26.1275862,-80.23310359999999,2014-11-01 04:10:15 UTC,2014-11-01 04:10:15 UTC
353,Norwalk,83185,CT,41.11774399999999,-73.4081575,2014-11-01 04:10:16 UTC,2014-11-01 04:10:16 UTC
354,Chino,83031,CA,34.0122346,-117.688944,2014-11-01 04:10:17 UTC,2014-11-01 04:10:17 UTC
355,Pearland,82903,TX,29.5635666,-95.2860474,2014-11-01 04:10:18 UTC,2014-11-01 04:10:18 UTC
356,Trenton,82883,NJ,40.2170534,-74.7429384,2014-11-01 04:10:19 UTC,2014-11-01 04:10:19 UTC
357,Ogden,82865,UT,41.223,-111.9738304,2014-11-01 04:10:20 UTC,2014-11-01 04:10:20 UTC
358,Sioux City,82807,IA,42.4999942,-96.40030689999999,2014-11-01 04:10:22 UTC,2014-11-01 04:10:22 UTC
359,Sandy Springs,82674,GA,33.9304352,-84.3733147,2014-11-01 04:10:23 UTC,2014-11-01 04:10:23 UTC
360,Suffolk,82302,VA,36.7282054,-76.5835621,2014-11-01 04:10:24 UTC,2014-11-01 04:10:24 UTC
361,Whittier,82267,CA,33.9791793,-118.032844,2014-11-01 04:10:25 UTC,2014-11-01 04:10:25 UTC
362,Racine,82196,WI,42.7261309,-87.78285230000002,2014-11-01 04:10:26 UTC,2014-11-01 04:10:26 UTC
363,Newton,82139,MA,42.3370413,-71.20922139999999,2014-11-01 04:10:27 UTC,2014-11-01 04:10:27 UTC
364,Avondale,81299,AZ,33.4355977,-112.3496021,2014-11-01 04:10:28 UTC,2014-11-01 04:10:28 UTC
365,Bloomington,81280,MN,44.840798,-93.2982799,2014-11-01 04:10:29 UTC,2014-11-01 04:10:29 UTC
366,Allen,81268,TX,33.1031744,-96.67055030000002,2014-11-01 04:10:30 UTC,2014-11-01 04:10:30 UTC
367,Sugar Land,80704,TX,29.6196787,-95.6349463,2014-11-01 04:10:31 UTC,2014-11-01 04:10:31 UTC
368,Reading,80506,PA,40.3356483,-75.9268747,2014-11-01 04:10:32 UTC,2014-11-01 04:10:32 UTC
369,Cicero,80414,IL,41.8455877,-87.7539448,2014-11-01 04:10:34 UTC,2014-11-01 04:10:34 UTC
370,Nampa,80362,ID,43.5407172,-116.5634624,2014-11-01 04:10:35 UTC,2014-11-01 04:10:35 UTC
371,Troy,80264,MI,42.6064095,-83.1497751,2014-11-01 04:10:36 UTC,2014-11-01 04:10:36 UTC
372,Livermore,80188,CA,37.6818745,-121.7680088,2014-11-01 04:10:37 UTC,2014-11-01 04:10:37 UTC
373,Cranston,79980,RI,41.7798226,-71.4372796,2014-11-01 04:10:38 UTC,2014-11-01 04:10:38 UTC
374,Newport Beach,79661,CA,33.6189101,-117.9289469,2014-11-01 04:10:39 UTC,2014-11-01 04:10:39 UTC
375,Rio Rancho,79655,NM,35.2327544,-106.6630437,2014-11-01 04:10:40 UTC,2014-11-01 04:10:40 UTC
376,Greenville,79629,NC,35.612661,-77.3663538,2014-11-01 04:10:41 UTC,2014-11-01 04:10:41 UTC
377,Edmond,79559,OK,35.6528323,-97.47809540000002,2014-11-01 04:10:42 UTC,2014-11-01 04:10:42 UTC
378,Champaign,79389,IL,40.1164204,-88.2433829,2014-11-01 04:10:43 UTC,2014-11-01 04:10:43 UTC
379,Camden,79383,NJ,39.9259463,-75.1196199,2014-11-01 04:10:45 UTC,2014-11-01 04:10:45 UTC
380,Buena Park,79379,CA,33.8675143,-117.9981181,2014-11-01 04:10:46 UTC,2014-11-01 04:10:46 UTC
381,Danbury,79256,CT,41.394817,-73.4540111,2014-11-01 04:10:47 UTC,2014-11-01 04:10:47 UTC
382,Tracy,79196,CA,37.7396513,-121.4252227,2014-11-01 04:10:48 UTC,2014-11-01 04:10:48 UTC
383,San Marcos,79114,CA,33.1433723,-117.1661449,2014-11-01 04:10:49 UTC,2014-11-01 04:10:49 UTC
384,Westland,78961,MI,42.32420399999999,-83.400211,2014-11-01 04:10:50 UTC,2014-11-01 04:10:50 UTC
385,Bellingham,78905,WA,48.74908,-122.4781473,2014-11-01 04:10:51 UTC,2014-11-01 04:10:51 UTC
386,Farmington Hills,78522,MI,42.4989936,-83.3677168,2014-11-01 04:10:52 UTC,2014-11-01 04:10:52 UTC
387,Lakewood,78444,CA,33.8536269,-118.1339563,2014-11-01 04:10:53 UTC,2014-11-01 04:10:53 UTC
388,Canton,78362,OH,40.79894729999999,-81.378447,2014-11-01 04:10:54 UTC,2014-11-01 04:10:54 UTC
389,Clifton,78219,NJ,40.8584328,-74.16375529999999,2014-11-01 04:10:56 UTC,2014-11-01 04:10:56 UTC
390,Parma,77947,OH,41.4047742,-81.7229086,2014-11-01 04:10:57 UTC,2014-11-01 04:10:57 UTC
391,San Leandro,77880,CA,37.7249296,-122.1560768,2014-11-01 04:10:58 UTC,2014-11-01 04:10:58 UTC
392,Evanston,77693,IL,42.0450722,-87.68769689999999,2014-11-01 04:10:59 UTC,2014-11-01 04:10:59 UTC
393,Baldwin Park,77380,CA,34.0852868,-117.9608978,2014-11-01 04:11:00 UTC,2014-11-01 04:11:00 UTC
394,Melbourne,77351,FL,28.0836269,-80.60810889999999,2014-11-01 04:11:01 UTC,2014-11-01 04:11:01 UTC
395,Longview,77211,TX,32.5007037,-94.74048909999999,2014-11-01 04:11:02 UTC,2014-11-01 04:11:02 UTC
396,Bend,77181,OR,44.0581728,-121.3153096,2014-11-01 04:11:03 UTC,2014-11-01 04:11:03 UTC
397,Merced,77160,CA,37.3021632,-120.4829677,2014-11-01 04:11:04 UTC,2014-11-01 04:11:04 UTC
398,O'Fallon,76819,MO,38.8106075,-90.69984769999999,2014-11-01 04:11:05 UTC,2014-11-01 04:11:05 UTC
399,Hammond,76732,IN,41.5833688,-87.5000412,2014-11-01 04:11:06 UTC,2014-11-01 04:11:06 UTC
400,Decatur,76256,IL,39.8403147,-88.9548001,2014-11-01 04:11:08 UTC,2014-11-01 04:11:08 UTC
401,Jacksonville,76233,NC,34.7540524,-77.4302414,2014-11-01 04:11:09 UTC,2014-11-01 04:11:09 UTC
402,St. Joseph,76197,MO,39.7674578,-94.84668099999999,2014-11-01 04:11:10 UTC,2014-11-01 04:11:10 UTC
403,Albany,75831,GA,31.5785074,-84.15574099999999,2014-11-01 04:11:11 UTC,2014-11-01 04:11:11 UTC
404,Somerville,75662,MA,42.3875968,-71.0994968,2014-11-01 04:11:12 UTC,2014-11-01 04:11:12 UTC
405,Lake Forest,75566,CA,33.6469661,-117.689218,2014-11-01 04:11:13 UTC,2014-11-01 04:11:13 UTC
406,Southfield,75392,MI,42.4733688,-83.2218731,2014-11-01 04:11:14 UTC,2014-11-01 04:11:14 UTC
407,Missouri City,74723,TX,29.6185669,-95.5377215,2014-11-01 04:11:15 UTC,2014-11-01 04:11:15 UTC
408,Deerfield Beach,74584,FL,26.3184123,-80.09976569999999,2014-11-01 04:11:16 UTC,2014-11-01 04:11:16 UTC
409,Napa,74547,CA,38.2975381,-122.286865,2014-11-01 04:11:17 UTC,2014-11-01 04:11:17 UTC
410,Asheville,74543,NC,35.5950581,-82.5514869,2014-11-01 04:11:18 UTC,2014-11-01 04:11:18 UTC
411,New Rochelle,74115,NY,40.9114882,-73.7823549,2014-11-01 04:11:20 UTC,2014-11-01 04:11:20 UTC
412,Redwood City,74060,CA,37.48521520000001,-122.2363548,2014-11-01 04:11:21 UTC,2014-11-01 04:11:21 UTC
413,Chino Hills,73879,CA,33.9898188,-117.7325848,2014-11-01 04:11:22 UTC,2014-11-01 04:11:22 UTC
414,Arlington Heights,73399,IL,42.0883603,-87.98062650000001,2014-11-01 04:11:23 UTC,2014-11-01 04:11:23 UTC
415,Fayetteville,73372,AR,36.0625795,-94.1574263,2014-11-01 04:11:24 UTC,2014-11-01 04:11:24 UTC
416,Medford,73212,OR,42.3265152,-122.8755949,2014-11-01 04:11:25 UTC,2014-11-01 04:11:25 UTC
417,Bellflower,73033,CA,33.8816818,-118.1170117,2014-11-01 04:11:26 UTC,2014-11-01 04:11:26 UTC
418,Bloomington,73026,IL,40.4842027,-88.99368729999999,2014-11-01 04:11:27 UTC,2014-11-01 04:11:27 UTC
419,Youngstown,72925,OH,41.0997803,-80.6495194,2014-11-01 04:11:28 UTC,2014-11-01 04:11:28 UTC
420,Largo,72732,FL,27.9094665,-82.7873244,2014-11-01 04:11:29 UTC,2014-11-01 04:11:29 UTC
421,St. George,72718,UT,37.0965278,-113.5684164,2014-11-01 04:11:31 UTC,2014-11-01 04:11:31 UTC
422,Lynchburg,72596,VA,37.4137536,-79.14224639999999,2014-11-01 04:11:32 UTC,2014-11-01 04:11:32 UTC
423,Wilmington,72592,DE,39.7390721,-75.5397878,2014-11-01 04:11:33 UTC,2014-11-01 04:11:33 UTC
424,Gastonia,72505,NC,35.262082,-81.18730049999999,2014-11-01 04:11:34 UTC,2014-11-01 04:11:34 UTC
425,Bryan,72357,TX,30.6743643,-96.3699632,2014-11-01 04:11:35 UTC,2014-11-01 04:11:35 UTC
426,Palm Coast,72316,FL,29.5844524,-81.20786989999999,2014-11-01 04:11:36 UTC,2014-11-01 04:11:36 UTC
427,Bethlehem,72241,PA,40.6259316,-75.37045789999999,2014-11-01 04:11:37 UTC,2014-11-01 04:11:37 UTC
428,Scranton,72233,PA,41.408969,-75.66241219999999,2014-11-01 04:11:39 UTC,2014-11-01 04:11:39 UTC
429,Kalamazoo,72179,MI,42.2917069,-85.5872286,2014-11-01 04:11:40 UTC,2014-11-01 04:11:40 UTC
430,Union City,72123,CA,37.5933918,-122.0438298,2014-11-01 04:11:41 UTC,2014-11-01 04:11:41 UTC
431,Upland,72091,CA,34.09751,-117.6483876,2014-11-01 04:11:42 UTC,2014-11-01 04:11:42 UTC
432,Santa Fe,71831,NM,35.6869752,-105.937799,2014-11-01 04:11:43 UTC,2014-11-01 04:11:43 UTC
433,Bloomington,71819,IN,39.165325,-86.52638569999999,2014-11-01 04:11:44 UTC,2014-11-01 04:11:44 UTC
434,Tustin,71814,CA,33.7458511,-117.826166,2014-11-01 04:11:45 UTC,2014-11-01 04:11:45 UTC
435,Pawtucket,71765,RI,41.878711,-71.38255579999999,2014-11-01 04:11:46 UTC,2014-11-01 04:11:46 UTC
436,Schaumburg,71716,IL,42.0333607,-88.0834059,2014-11-01 04:11:47 UTC,2014-11-01 04:11:47 UTC
437,Edinburg,71520,TX,26.3017374,-98.1633432,2014-11-01 04:11:48 UTC,2014-11-01 04:11:48 UTC
438,Plymouth,71486,MN,45.0105194,-93.4555093,2014-11-01 04:11:50 UTC,2014-11-01 04:11:50 UTC
439,Mountain View,71348,CA,37.3860517,-122.0838511,2014-11-01 04:11:51 UTC,2014-11-01 04:11:51 UTC
440,Brooklyn Park,71308,MN,45.0941315,-93.3563405,2014-11-01 04:11:52 UTC,2014-11-01 04:11:52 UTC
441,League City,71222,TX,29.5074538,-95.0949303,2014-11-01 04:11:53 UTC,2014-11-01 04:11:53 UTC
442,Lake Charles,71061,LA,30.2265949,-93.2173758,2014-11-01 04:11:54 UTC,2014-11-01 04:11:54 UTC
443,Hoover,71020,AL,33.4053867,-86.8113781,2014-11-01 04:11:55 UTC,2014-11-01 04:11:55 UTC
444,Hemet,70991,CA,33.7475203,-116.9719684,2014-11-01 04:11:56 UTC,2014-11-01 04:11:56 UTC
445,Bolingbrook,70823,IL,41.69864159999999,-88.0683955,2014-11-01 04:11:57 UTC,2014-11-01 04:11:57 UTC
446,Alameda,70580,CA,37.7652065,-122.2416355,2014-11-01 04:11:58 UTC,2014-11-01 04:11:58 UTC
447,New Britain,70486,CT,41.6612104,-72.7795419,2014-11-01 04:11:59 UTC,2014-11-01 04:11:59 UTC
448,Wyoming,70462,MI,42.9133602,-85.7053085,2014-11-01 04:12:00 UTC,2014-11-01 04:12:00 UTC
449,Baytown,70330,TX,29.7355047,-94.97742740000001,2014-11-01 04:12:02 UTC,2014-11-01 04:12:02 UTC
450,Appleton,70305,WI,44.2619309,-88.41538469999999,2014-11-01 04:12:03 UTC,2014-11-01 04:12:03 UTC
451,Lorain,70239,OH,41.452819,-82.1823746,2014-11-01 04:12:04 UTC,2014-11-01 04:12:04 UTC
452,Apple Valley,70200,CA,34.5008311,-117.1858759,2014-11-01 04:12:05 UTC,2014-11-01 04:12:05 UTC
453,Gulfport,70055,MS,30.3674198,-89.0928155,2014-11-01 04:12:06 UTC,2014-11-01 04:12:06 UTC
454,Lynwood,70025,CA,33.930293,-118.2114603,2014-11-01 04:12:07 UTC,2014-11-01 04:12:07 UTC
455,Lawrence,70014,MA,42.7070354,-71.1631137,2014-11-01 04:12:08 UTC,2014-11-01 04:12:08 UTC
456,Redlands,69689,CA,34.0555693,-117.1825381,2014-11-01 04:12:09 UTC,2014-11-01 04:12:09 UTC
457,Flower Mound,69307,TX,33.0145673,-97.0969552,2014-11-01 04:12:11 UTC,2014-11-01 04:12:11 UTC
458,Rochester Hills,69014,MI,42.65836609999999,-83.1499322,2014-11-01 04:12:12 UTC,2014-11-01 04:12:12 UTC
459,Fishers,69011,IN,39.9567548,-86.01335,2014-11-01 04:12:13 UTC,2014-11-01 04:12:13 UTC
460,Mount Vernon,68653,NY,40.9125992,-73.8370786,2014-11-01 04:12:14 UTC,2014-11-01 04:12:14 UTC
461,Turlock,68404,CA,37.4946568,-120.8465941,2014-11-01 04:12:15 UTC,2014-11-01 04:12:15 UTC
462,Boynton Beach,68291,FL,26.5317866,-80.0905465,2014-11-01 04:12:16 UTC,2014-11-01 04:12:16 UTC
463,Missoula,68202,MT,46.8625,-114.011667,2014-11-01 04:12:17 UTC,2014-11-01 04:12:17 UTC
464,Springdale,68180,AR,36.18674420000001,-94.1288141,2014-11-01 04:12:18 UTC,2014-11-01 04:12:18 UTC
465,Waukesha,68008,WI,43.0116784,-88.2314813,2014-11-01 04:12:19 UTC,2014-11-01 04:12:19 UTC
466,Iowa City,67831,IA,41.6611277,-91.5301683,2014-11-01 04:12:20 UTC,2014-11-01 04:12:20 UTC
467,Folsom,67788,CA,38.6779591,-121.1760583,2014-11-01 04:12:21 UTC,2014-11-01 04:12:21 UTC
468,Marietta,67562,GA,33.95260200000001,-84.5499327,2014-11-01 04:12:23 UTC,2014-11-01 04:12:23 UTC
469,Milpitas,67503,CA,37.4323341,-121.8995741,2014-11-01 04:12:24 UTC,2014-11-01 04:12:24 UTC
470,Rock Hill,67339,SC,34.9248667,-81.02507840000001,2014-11-01 04:12:25 UTC,2014-11-01 04:12:25 UTC
471,Mission,67119,TX,26.2159066,-98.32529319999999,2014-11-01 04:12:26 UTC,2014-11-01 04:12:26 UTC
472,Palatine,67080,IL,42.1103041,-88.03424000000001,2014-11-01 04:12:27 UTC,2014-11-01 04:12:27 UTC
473,Lauderhill,67073,FL,26.1403635,-80.2133808,2014-11-01 04:12:28 UTC,2014-11-01 04:12:28 UTC
474,St. Cloud,66948,MN,45.5579451,-94.16324039999999,2014-11-01 04:12:29 UTC,2014-11-01 04:12:29 UTC
475,Kenner,66942,LA,29.9940924,-90.2417434,2014-11-01 04:12:30 UTC,2014-11-01 04:12:30 UTC
476,Meridian,66916,ID,43.6121087,-116.3915131,2014-11-01 04:12:31 UTC,2014-11-01 04:12:31 UTC
477,Passaic,66884,NJ,40.8567662,-74.1284764,2014-11-01 04:12:32 UTC,2014-11-01 04:12:32 UTC
478,Redondo Beach,66882,CA,33.8491816,-118.3884078,2014-11-01 04:12:34 UTC,2014-11-01 04:12:34 UTC
479,Pleasanton,66828,CA,37.6624312,-121.8746789,2014-11-01 04:12:35 UTC,2014-11-01 04:12:35 UTC
480,Carmel,66769,IN,39.978371,-86.1180435,2014-11-01 04:12:36 UTC,2014-11-01 04:12:36 UTC
481,Waterloo,66662,IA,42.492786,-92.34257749999999,2014-11-01 04:12:37 UTC,2014-11-01 04:12:37 UTC
482,Skokie,66620,IL,42.0324025,-87.7416246,2014-11-01 04:12:38 UTC,2014-11-01 04:12:38 UTC
483,Dothan,66505,AL,31.2232313,-85.3904888,2014-11-01 04:12:39 UTC,2014-11-01 04:12:39 UTC
484,Concord,66311,NC,35.4087517,-80.579511,2014-11-01 04:12:40 UTC,2014-11-01 04:12:40 UTC
485,Pontiac,66095,MI,42.6389216,-83.29104679999999,2014-11-01 04:12:41 UTC,2014-11-01 04:12:41 UTC
486,Yorba Linda,65717,CA,33.8886259,-117.8131125,2014-11-01 04:12:42 UTC,2014-11-01 04:12:42 UTC
487,Loveland,65587,CO,40.3977612,-105.0749801,2014-11-01 04:12:43 UTC,2014-11-01 04:12:43 UTC
488,Layton,65514,UT,41.0602216,-111.9710529,2014-11-01 04:12:45 UTC,2014-11-01 04:12:45 UTC
489,Rapid City,65491,SD,44.0805434,-103.2310149,2014-11-01 04:12:46 UTC,2014-11-01 04:12:46 UTC
490,Mount Pleasant,65472,SC,32.8323225,-79.82842579999999,2014-11-01 04:12:47 UTC,2014-11-01 04:12:47 UTC
491,Eau Claire,65426,WI,44.811349,-91.4984941,2014-11-01 04:12:48 UTC,2014-11-01 04:12:48 UTC
492,Fort Myers,65394,FL,26.640628,-81.8723084,2014-11-01 04:12:49 UTC,2014-11-01 04:12:49 UTC
493,East Orange,65390,NJ,40.767323,-74.2048677,2014-11-01 04:12:50 UTC,2014-11-01 04:12:50 UTC
494,Pharr,65258,TX,26.1947962,-98.1836216,2014-11-01 04:12:51 UTC,2014-11-01 04:12:51 UTC
495,North Richland Hills,65078,TX,32.8342952,-97.2289029,2014-11-01 04:12:52 UTC,2014-11-01 04:12:52 UTC
496,Manteca,65028,CA,37.7974273,-121.2160526,2014-11-01 04:12:53 UTC,2014-11-01 04:12:53 UTC
497,Muncie,64975,IN,40.1933767,-85.3863599,2014-11-01 04:12:54 UTC,2014-11-01 04:12:54 UTC
498,Harlingen,64843,TX,26.1906306,-97.69610259999999,2014-11-01 04:12:55 UTC,2014-11-01 04:12:55 UTC
499,Laguna Niguel,64469,CA,33.5225261,-117.7075526,2014-11-01 04:12:57 UTC,2014-11-01 04:12:57 UTC
500,St. Charles,64386,MO,38.788698,-90.511764,2014-11-01 04:12:58 UTC,2014-11-01 04:12:58 UTC
501,Daytona Beach,64211,FL,29.2108147,-81.0228331,2014-11-01 04:12:59 UTC,2014-11-01 04:12:59 UTC
502,Pittsburg,64148,CA,38.0279762,-121.8846806,2014-11-01 04:13:00 UTC,2014-11-01 04:13:00 UTC
503,Delray Beach,64092,FL,26.4614625,-80.0728201,2014-11-01 04:13:01 UTC,2014-11-01 04:13:01 UTC
504,Lafayette,64049,IN,40.4167022,-86.87528689999999,2014-11-01 04:13:02 UTC,2014-11-01 04:13:02 UTC
505,Eagan,63985,MN,44.8041322,-93.1668858,2014-11-01 04:13:03 UTC,2014-11-01 04:13:03 UTC
506,Jonesboro,63960,AR,35.84229670000001,-90.704279,2014-11-01 04:13:04 UTC,2014-11-01 04:13:04 UTC
507,Oshkosh,63679,WI,44.0247062,-88.5426136,2014-11-01 04:13:05 UTC,2014-11-01 04:13:05 UTC
508,Weston,63628,FL,26.1003654,-80.3997748,2014-11-01 04:13:07 UTC,2014-11-01 04:13:07 UTC
509,Walnut Creek,63486,CA,37.9100783,-122.0651819,2014-11-01 04:13:08 UTC,2014-11-01 04:13:08 UTC
510,Camarillo,63324,CA,34.2163937,-119.0376023,2014-11-01 04:13:09 UTC,2014-11-01 04:13:09 UTC
511,Kennewick,63216,WA,46.2112458,-119.1372338,2014-11-01 04:13:10 UTC,2014-11-01 04:13:10 UTC
512,Jackson,63158,TN,35.6145169,-88.81394689999999,2014-11-01 04:13:11 UTC,2014-11-01 04:13:11 UTC
513,Pico Rivera,63138,CA,33.9830688,-118.096735,2014-11-01 04:13:12 UTC,2014-11-01 04:13:12 UTC
514,Davis,62593,CA,38.5449065,-121.7405167,2014-11-01 04:13:13 UTC,2014-11-01 04:13:13 UTC
515,Portland,62561,ME,43.66147100000001,-70.2553259,2014-11-01 04:13:14 UTC,2014-11-01 04:13:14 UTC
516,Victoria,62558,TX,28.8052674,-97.0035982,2014-11-01 04:13:15 UTC,2014-11-01 04:13:15 UTC
517,Janesville,62516,WI,42.6827885,-89.0187222,2014-11-01 04:13:16 UTC,2014-11-01 04:13:16 UTC
518,South San Francisco,62502,CA,37.654656,-122.4077498,2014-11-01 04:13:18 UTC,2014-11-01 04:13:18 UTC
519,Hamilton,62477,OH,39.3995008,-84.5613355,2014-11-01 04:13:19 UTC,2014-11-01 04:13:19 UTC
520,Bossier City,62384,LA,32.5159852,-93.7321228,2014-11-01 04:13:20 UTC,2014-11-01 04:13:20 UTC
521,Cedar Park,62308,TX,30.505198,-97.8202888,2014-11-01 04:13:21 UTC,2014-11-01 04:13:21 UTC
522,Kissimmee,62291,FL,28.2919557,-81.40757099999999,2014-11-01 04:13:22 UTC,2014-11-01 04:13:22 UTC
523,Springfield,62269,OH,39.9242266,-83.8088171,2014-11-01 04:13:23 UTC,2014-11-01 04:13:23 UTC
524,Renton,62266,WA,47.48287759999999,-122.2170661,2014-11-01 04:13:24 UTC,2014-11-01 04:13:24 UTC
525,Rancho Cordova,62265,CA,38.5890723,-121.302728,2014-11-01 04:13:26 UTC,2014-11-01 04:13:26 UTC
526,Union City,62183,NJ,40.6975898,-74.26316349999999,2014-11-01 04:13:27 UTC,2014-11-01 04:13:27 UTC
527,Johnson City,61990,TN,36.3134397,-82.3534727,2014-11-01 04:13:28 UTC,2014-11-01 04:13:28 UTC
528,Montebello,61906,CA,34.0165053,-118.1137535,2014-11-01 04:13:29 UTC,2014-11-01 04:13:29 UTC
529,Coon Rapids,61832,MN,45.1732394,-93.30300629999999,2014-11-01 04:13:30 UTC,2014-11-01 04:13:30 UTC
530,Maple Grove,61542,MN,45.0724642,-93.4557877,2014-11-01 04:13:31 UTC,2014-11-01 04:13:31 UTC
531,San Clemente,61465,CA,33.4269728,-117.6119925,2014-11-01 04:13:32 UTC,2014-11-01 04:13:32 UTC
532,Warner Robins,61336,GA,32.608611,-83.63805599999999,2014-11-01 04:13:33 UTC,2014-11-01 04:13:33 UTC
533,Lodi,61301,CA,38.1341477,-121.2722194,2014-11-01 04:13:34 UTC,2014-11-01 04:13:34 UTC
534,Haverhill,61275,MA,42.7762015,-71.0772796,2014-11-01 04:13:35 UTC,2014-11-01 04:13:35 UTC
535,Monterey Park,61234,CA,34.0625106,-118.1228476,2014-11-01 04:13:37 UTC,2014-11-01 04:13:37 UTC
536,Yuba City,61226,CA,39.1404477,-121.6169108,2014-11-01 04:13:38 UTC,2014-11-01 04:13:38 UTC
537,Eden Prairie,61191,MN,44.8546856,-93.47078599999999,2014-11-01 04:13:39 UTC,2014-11-01 04:13:39 UTC
538,Schenectady,61152,NY,42.8142432,-73.9395687,2014-11-01 04:13:40 UTC,2014-11-01 04:13:40 UTC
539,Shawnee,60954,KS,39.02284849999999,-94.7151865,2014-11-01 04:13:41 UTC,2014-11-01 04:13:41 UTC
540,Bristol,60927,CT,41.67176480000001,-72.9492703,2014-11-01 04:13:42 UTC,2014-11-01 04:13:42 UTC
541,Huntington Park,60898,CA,33.9816812,-118.2250725,2014-11-01 04:13:43 UTC,2014-11-01 04:13:43 UTC
542,Rockville,60734,MD,39.0839973,-77.1527578,2014-11-01 04:13:44 UTC,2014-11-01 04:13:44 UTC
543,Taylor,60619,MI,42.240872,-83.2696509,2014-11-01 04:13:46 UTC,2014-11-01 04:13:46 UTC
544,Bismarck,60389,ND,46.8083268,-100.7837392,2014-11-01 04:13:47 UTC,2014-11-01 04:13:47 UTC
545,Encinitas,60372,CA,33.0369867,-117.2919818,2014-11-01 04:13:48 UTC,2014-11-01 04:13:48 UTC
546,St. Clair Shores,60364,MI,42.495556,-82.900278,2014-11-01 04:13:49 UTC,2014-11-01 04:13:49 UTC
547,Waltham,60236,MA,42.3764852,-71.2356113,2014-11-01 04:13:50 UTC,2014-11-01 04:13:50 UTC
548,Flagstaff,60222,AZ,35.1982836,-111.651302,2014-11-01 04:13:51 UTC,2014-11-01 04:13:51 UTC
549,Revere,60204,MA,42.4084302,-71.0119948,2014-11-01 04:13:52 UTC,2014-11-01 04:13:52 UTC
550,Terre Haute,60007,IN,39.4667034,-87.41390919999999,2014-11-01 04:13:53 UTC,2014-11-01 04:13:53 UTC
551,Greenville,59988,SC,34.85261759999999,-82.3940104,2014-11-01 04:13:54 UTC,2014-11-01 04:13:54 UTC
552,Temple,59654,TX,31.0982344,-97.342782,2014-11-01 04:13:55 UTC,2014-11-01 04:13:55 UTC
553,Council Bluffs,59536,IA,41.2619444,-95.8608333,2014-11-01 04:13:56 UTC,2014-11-01 04:13:56 UTC
554,Goodyear,59508,AZ,33.4417692,-112.3973474,2014-11-01 04:13:58 UTC,2014-11-01 04:13:58 UTC
555,Johns Creek,59431,GA,34.0289259,-84.198579,2014-11-01 04:13:59 UTC,2014-11-01 04:13:59 UTC
556,North Little Rock,59430,AR,34.769536,-92.2670941,2014-11-01 04:14:00 UTC,2014-11-01 04:14:00 UTC
557,West Allis,59416,WI,43.0166806,-88.0070315,2014-11-01 04:14:01 UTC,2014-11-01 04:14:01 UTC
558,Palo Alto,59395,CA,37.4418834,-122.1430195,2014-11-01 04:14:02 UTC,2014-11-01 04:14:02 UTC
559,Tamarac,59340,FL,26.2128609,-80.2497707,2014-11-01 04:14:03 UTC,2014-11-01 04:14:03 UTC
560,Great Falls,59251,MT,47.4941836,-111.2833449,2014-11-01 04:14:04 UTC,2014-11-01 04:14:04 UTC
561,Frederick,59213,MD,39.41426879999999,-77.4105409,2014-11-01 04:14:05 UTC,2014-11-01 04:14:05 UTC
562,Tinley Park,59198,IL,41.5731442,-87.7932939,2014-11-01 04:14:06 UTC,2014-11-01 04:14:06 UTC
563,Meriden,59186,CT,41.5381535,-72.80704349999999,2014-11-01 04:14:08 UTC,2014-11-01 04:14:08 UTC
564,La Habra,59155,CA,33.9319578,-117.9461734,2014-11-01 04:14:09 UTC,2014-11-01 04:14:09 UTC
565,Burnsville,59139,MN,44.7677424,-93.27772259999999,2014-11-01 04:14:10 UTC,2014-11-01 04:14:10 UTC
566,Taylorsville,58785,UT,40.66772479999999,-111.9388258,2014-11-01 04:14:11 UTC,2014-11-01 04:14:11 UTC
567,Vineland,58780,NJ,39.4863773,-75.02596369999999,2014-11-01 04:14:12 UTC,2014-11-01 04:14:12 UTC
568,Gaithersburg,58744,MD,39.1434406,-77.2013705,2014-11-01 04:14:13 UTC,2014-11-01 04:14:13 UTC
569,National City,58680,CA,32.6781085,-117.0991967,2014-11-01 04:14:15 UTC,2014-11-01 04:14:15 UTC
570,Gardena,58554,CA,33.8883487,-118.3089624,2014-11-01 04:14:16 UTC,2014-11-01 04:14:16 UTC
571,Franklin,58481,TN,35.9250637,-86.8688899,2014-11-01 04:14:17 UTC,2014-11-01 04:14:17 UTC
572,Utica,58082,NY,43.100903,-75.232664,2014-11-01 04:14:18 UTC,2014-11-01 04:14:18 UTC
573,Homestead,57936,FL,25.4687224,-80.4775569,2014-11-01 04:14:19 UTC,2014-11-01 04:14:19 UTC
574,Conway,57544,AR,35.0886963,-92.4421011,2014-11-01 04:14:20 UTC,2014-11-01 04:14:20 UTC
575,Bayonne,57448,NJ,40.6687141,-74.1143091,2014-11-01 04:14:21 UTC,2014-11-01 04:14:21 UTC
576,White Plains,57342,NY,41.03398620000001,-73.7629097,2014-11-01 04:14:23 UTC,2014-11-01 04:14:23 UTC
577,Anderson,57282,IN,40.1053196,-85.6802541,2014-11-01 04:14:24 UTC,2014-11-01 04:14:24 UTC
578,Dubuque,57250,IA,42.5005583,-90.66457179999999,2014-11-01 04:14:25 UTC,2014-11-01 04:14:25 UTC
579,Diamond Bar,57235,CA,34.0286226,-117.8103367,2014-11-01 04:14:26 UTC,2014-11-01 04:14:26 UTC
580,Springfield,57224,OR,44.0462362,-123.0220289,2014-11-01 04:14:27 UTC,2014-11-01 04:14:27 UTC
581,Royal Oak,57110,MI,42.4894801,-83.1446485,2014-11-01 04:14:28 UTC,2014-11-01 04:14:28 UTC
582,Galveston,57086,TX,29.3013479,-94.7976958,2014-11-01 04:14:29 UTC,2014-11-01 04:14:29 UTC
583,Des Plaines,57062,IL,42.0333623,-87.88339909999999,2014-11-01 04:14:30 UTC,2014-11-01 04:14:30 UTC
584,Rocky Mount,57010,NC,35.9382103,-77.7905339,2014-11-01 04:14:31 UTC,2014-11-01 04:14:31 UTC
585,Lakewood,56983,WA,-30.8101921,121.5362916,2014-11-01 04:14:32 UTC,2014-11-01 04:14:32 UTC
586,Cheyenne,56915,WY,41.1399814,-104.8202462,2014-11-01 04:14:34 UTC,2014-11-01 04:14:34 UTC
587,Rogers,56726,AR,36.3320196,-94.1185366,2014-11-01 04:14:35 UTC,2014-11-01 04:14:35 UTC
588,Madera,56700,CA,36.9613356,-120.0607176,2014-11-01 04:14:36 UTC,2014-11-01 04:14:36 UTC
589,Tulare,56654,CA,36.2077288,-119.3473379,2014-11-01 04:14:37 UTC,2014-11-01 04:14:37 UTC
590,Lake Havasu City,56553,AZ,34.483901,-114.3224548,2014-11-01 04:14:38 UTC,2014-11-01 04:14:38 UTC
591,Ames,56510,IA,42.034722,-93.61999999999999,2014-11-01 04:14:39 UTC,2014-11-01 04:14:39 UTC
592,Midwest City,56394,OK,35.4495065,-97.3967019,2014-11-01 04:14:40 UTC,2014-11-01 04:14:40 UTC
593,Arcadia,56248,CA,34.1397292,-118.0353449,2014-11-01 04:14:41 UTC,2014-11-01 04:14:41 UTC
594,Woodbury,56128,MN,44.9238552,-92.9593797,2014-11-01 04:14:42 UTC,2014-11-01 04:14:42 UTC
595,Santa Cruz,56124,CA,36.9741171,-122.0307963,2014-11-01 04:14:43 UTC,2014-11-01 04:14:43 UTC
596,Auburn,56088,AL,32.6098566,-85.48078249999999,2014-11-01 04:14:45 UTC,2014-11-01 04:14:45 UTC
597,Decatur,56068,AL,34.6059253,-86.9833417,2014-11-01 04:14:46 UTC,2014-11-01 04:14:46 UTC
598,Port Arthur,55910,TX,29.8849504,-93.93994699999999,2014-11-01 04:14:48 UTC,2014-11-01 04:14:48 UTC
599,North Miami,55908,FL,25.8900949,-80.1867138,2014-11-01 04:14:49 UTC,2014-11-01 04:14:49 UTC
600,Rowlett,55780,TX,32.9029017,-96.56388,2014-11-01 04:14:50 UTC,2014-11-01 04:14:50 UTC
601,Taunton,55702,MA,41.900101,-71.0897674,2014-11-01 04:14:51 UTC,2014-11-01 04:14:51 UTC
602,Blue Springs,55698,MO,39.0169509,-94.2816148,2014-11-01 04:14:52 UTC,2014-11-01 04:14:52 UTC
603,Perris,55643,CA,33.7825194,-117.2286478,2014-11-01 04:14:53 UTC,2014-11-01 04:14:53 UTC
604,Saginaw,55620,MI,43.4194699,-83.9508068,2014-11-01 04:14:54 UTC,2014-11-01 04:14:54 UTC
605,San Rafael,55602,CA,37.9735346,-122.5310874,2014-11-01 04:14:55 UTC,2014-11-01 04:14:55 UTC
606,Malden,55597,MA,42.4250964,-71.066163,2014-11-01 04:14:57 UTC,2014-11-01 04:14:57 UTC
607,Medford,55573,MA,42.4184296,-71.1061639,2014-11-01 04:14:58 UTC,2014-11-01 04:14:58 UTC
608,Fountain Valley,55516,CA,33.7091847,-117.9536697,2014-11-01 04:14:59 UTC,2014-11-01 04:14:59 UTC
609,Owensboro,55516,KY,37.7719074,-87.1111676,2014-11-01 04:15:00 UTC,2014-11-01 04:15:00 UTC
610,Orland Park,55514,IL,41.6303103,-87.85394250000002,2014-11-01 04:15:01 UTC,2014-11-01 04:15:01 UTC
611,St. Peters,55500,MO,38.7874699,-90.6298922,2014-11-01 04:15:02 UTC,2014-11-01 04:15:02 UTC
612,Conroe,55429,TX,30.3118769,-95.45605119999999,2014-11-01 04:15:03 UTC,2014-11-01 04:15:03 UTC
613,Auburn,55426,WA,47.30732279999999,-122.2284532,2014-11-01 04:15:04 UTC,2014-11-01 04:15:04 UTC
614,West Des Moines,55426,IA,41.5772115,-93.711332,2014-11-01 04:15:05 UTC,2014-11-01 04:15:05 UTC
615,Pasco,55246,WA,46.2395793,-119.1005657,2014-11-01 04:15:06 UTC,2014-11-01 04:15:06 UTC
616,Paramount,55236,CA,33.8894598,-118.1597911,2014-11-01 04:15:08 UTC,2014-11-01 04:15:08 UTC
617,Bowling Green,55097,KY,36.9685219,-86.4808043,2014-11-01 04:15:09 UTC,2014-11-01 04:15:09 UTC
618,Blaine,55042,MN,45.1607987,-93.23494889999999,2014-11-01 04:15:10 UTC,2014-11-01 04:15:10 UTC
619,Elyria,54979,OH,41.3683798,-82.10764859999999,2014-11-01 04:15:11 UTC,2014-11-01 04:15:11 UTC
620,Chicopee,54941,MA,42.1487043,-72.6078672,2014-11-01 04:15:12 UTC,2014-11-01 04:15:12 UTC
621,North Port,54907,FL,27.044224,-82.2359254,2014-11-01 04:15:13 UTC,2014-11-01 04:15:13 UTC
622,Pocatello,54901,ID,42.8713032,-112.4455344,2014-11-01 04:15:14 UTC,2014-11-01 04:15:14 UTC
623,Carson City,54867,NV,39.1637984,-119.7674034,2014-11-01 04:15:15 UTC,2014-11-01 04:15:15 UTC
624,Broomfield,54858,CO,39.9205411,-105.0866504,2014-11-01 04:15:17 UTC,2014-11-01 04:15:17 UTC
625,Ocala,54801,FL,29.1871986,-82.14009229999999,2014-11-01 04:15:18 UTC,2014-11-01 04:15:18 UTC
626,La Mesa,54673,CA,32.7678287,-117.0230839,2014-11-01 04:15:19 UTC,2014-11-01 04:15:19 UTC
627,Petaluma,54666,CA,38.232417,-122.6366524,2014-11-01 04:15:20 UTC,2014-11-01 04:15:20 UTC
628,Lancaster,54626,PA,40.0378755,-76.3055144,2014-11-01 04:15:21 UTC,2014-11-01 04:15:21 UTC
629,Port Orange,54616,FL,29.1383165,-80.9956105,2014-11-01 04:15:22 UTC,2014-11-01 04:15:22 UTC
630,Woodland,54567,CA,38.67851570000001,-121.7732971,2014-11-01 04:15:23 UTC,2014-11-01 04:15:23 UTC
631,Lakeville,54542,MN,44.6496868,-93.24271999999999,2014-11-01 04:15:24 UTC,2014-11-01 04:15:24 UTC
632,Wellington,54530,FL,26.6617635,-80.2683571,2014-11-01 04:15:25 UTC,2014-11-01 04:15:25 UTC
633,Wheaton,54465,IL,41.8661403,-88.1070127,2014-11-01 04:15:26 UTC,2014-11-01 04:15:26 UTC
634,Rosemead,54412,CA,34.0805651,-118.072846,2014-11-01 04:15:28 UTC,2014-11-01 04:15:28 UTC
635,Idaho Falls,54334,ID,43.49165139999999,-112.0339645,2014-11-01 04:15:29 UTC,2014-11-01 04:15:29 UTC
636,Milford,54136,CT,41.2306979,-73.064036,2014-11-01 04:15:30 UTC,2014-11-01 04:15:30 UTC
637,Margate,54086,FL,26.2445263,-80.206436,2014-11-01 04:15:31 UTC,2014-11-01 04:15:31 UTC
638,Novi,54054,MI,42.48059,-83.4754913,2014-11-01 04:15:32 UTC,2014-11-01 04:15:32 UTC
639,Casper,54047,WY,42.866632,-106.313081,2014-11-01 04:15:33 UTC,2014-11-01 04:15:33 UTC
640,Hempstead,53915,NY,40.7062128,-73.6187397,2014-11-01 04:15:34 UTC,2014-11-01 04:15:34 UTC
641,Santee,53860,CA,32.8383828,-116.9739167,2014-11-01 04:15:35 UTC,2014-11-01 04:15:35 UTC
642,Pensacola,53820,FL,30.42130899999999,-87.2169149,2014-11-01 04:15:36 UTC,2014-11-01 04:15:36 UTC
643,Kettering,53708,OH,39.68950359999999,-84.1688274,2014-11-01 04:15:37 UTC,2014-11-01 04:15:37 UTC
644,Hoffman Estates,53641,IL,42.0629915,-88.12271989999999,2014-11-01 04:15:38 UTC,2014-11-01 04:15:38 UTC
645,Cupertino,53637,CA,37.3229978,-122.0321823,2014-11-01 04:15:40 UTC,2014-11-01 04:15:40 UTC
646,New Braunfels,53547,TX,29.7030024,-98.1244531,2014-11-01 04:15:41 UTC,2014-11-01 04:15:41 UTC
647,Bradenton,53513,FL,27.4989278,-82.5748194,2014-11-01 04:15:42 UTC,2014-11-01 04:15:42 UTC
648,Mount Prospect,53338,IL,42.0664167,-87.9372908,2014-11-01 04:15:43 UTC,2014-11-01 04:15:43 UTC
649,Oak Lawn,53244,IL,41.719978,-87.7479528,2014-11-01 04:15:44 UTC,2014-11-01 04:15:44 UTC
650,Delano,53051,CA,35.7688425,-119.2470536,2014-11-01 04:15:45 UTC,2014-11-01 04:15:45 UTC
651,San Marcos,52927,TX,29.8832749,-97.9413941,2014-11-01 04:15:46 UTC,2014-11-01 04:15:46 UTC
652,Rocklin,52811,CA,38.7907339,-121.2357828,2014-11-01 04:15:47 UTC,2014-11-01 04:15:47 UTC
653,Novato,52785,CA,38.1074198,-122.5697032,2014-11-01 04:15:48 UTC,2014-11-01 04:15:48 UTC
654,Elkhart,52653,IN,41.6819935,-85.9766671,2014-11-01 07:50:31 UTC,2014-11-01 07:50:31 UTC
656,Euless,52579,TX,32.8370727,-97.08195409999999,2014-11-01 07:50:37 UTC,2014-11-01 07:50:37 UTC
657,Bowie,52544,MD,39.0067768,-76.77913649999999,2014-11-01 07:50:38 UTC,2014-11-01 07:50:38 UTC
658,Chapel Hill,52542,NC,35.9131996,-79.0558445,2014-11-01 07:50:39 UTC,2014-11-01 07:50:39 UTC
659,West Haven,52420,CT,41.2705484,-72.9469711,2014-11-01 07:50:40 UTC,2014-11-01 07:50:40 UTC
660,Sarasota,52340,FL,27.3364347,-82.53065269999999,2014-11-01 07:50:41 UTC,2014-11-01 07:50:41 UTC
661,Manhattan,52284,KS,39.18360819999999,-96.57166939999999,2014-11-01 07:50:42 UTC,2014-11-01 07:50:42 UTC
662,Cathedral City,52095,CA,33.7805388,-116.4668036,2014-11-01 07:50:43 UTC,2014-11-01 07:50:43 UTC
663,Normal,52056,IL,40.5142026,-88.9906312,2014-11-01 07:50:44 UTC,2014-11-01 07:50:44 UTC
664,Battle Creek,52053,MI,42.3211522,-85.17971419999999,2014-11-01 07:50:45 UTC,2014-11-01 07:50:45 UTC
665,Shoreline,52005,WA,47.7556531,-122.3415178,2014-11-01 07:50:47 UTC,2014-11-01 07:50:47 UTC
666,Hattiesburg,51993,MS,31.3271189,-89.29033919999999,2014-11-01 07:50:48 UTC,2014-11-01 07:50:48 UTC
667,Dearborn Heights,51972,MI,42.3369816,-83.27326269999999,2014-11-01 07:50:49 UTC,2014-11-01 07:50:49 UTC
668,Porterville,51830,CA,36.06523,-119.0167679,2014-11-01 07:50:50 UTC,2014-11-01 07:50:50 UTC
669,Mentor,51825,OH,41.6661573,-81.339552,2014-11-01 07:50:51 UTC,2014-11-01 07:50:51 UTC
670,Middletown,51422,OH,39.5150576,-84.39827629999999,2014-11-01 07:50:52 UTC,2014-11-01 07:50:52 UTC
671,Niagara Falls,51345,NY,43.0962143,-79.0377388,2014-11-01 07:50:53 UTC,2014-11-01 07:50:53 UTC
672,Peabody,51331,MA,42.5278731,-70.9286609,2014-11-01 07:50:54 UTC,2014-11-01 07:50:54 UTC
673,Cerritos,51326,CA,33.8583483,-118.0647871,2014-11-01 07:50:56 UTC,2014-11-01 07:50:56 UTC
674,Grand Forks,51313,ND,47.9252568,-97.0328547,2014-11-01 07:50:57 UTC,2014-11-01 07:50:57 UTC
675,Monroe,51215,LA,32.5093109,-92.1193012,2014-11-01 07:50:58 UTC,2014-11-01 07:50:58 UTC
676,New Brunswick,51149,NJ,40.4862157,-74.4518188,2014-11-01 07:50:59 UTC,2014-11-01 07:50:59 UTC
677,South Jordan,51131,UT,40.5621704,-111.929658,2014-11-01 07:51:00 UTC,2014-11-01 07:51:00 UTC
678,Corvallis,51110,OR,44.5645659,-123.2620435,2014-11-01 07:51:01 UTC,2014-11-01 07:51:01 UTC
679,Highland,51096,CA,34.1283442,-117.2086513,2014-11-01 07:51:02 UTC,2014-11-01 07:51:02 UTC
680,Cuyahoga Falls,51090,OH,41.1339449,-81.48455849999999,2014-11-01 07:51:03 UTC,2014-11-01 07:51:03 UTC
681,Lake Elsinore,50952,CA,33.6680772,-117.3272615,2014-11-01 07:51:04 UTC,2014-11-01 07:51:04 UTC
682,La Crosse,50902,WI,43.8013556,-91.23958069999999,2014-11-01 07:51:05 UTC,2014-11-01 07:51:05 UTC
683,Palm Desert,50876,CA,33.7222445,-116.3744556,2014-11-01 07:51:07 UTC,2014-11-01 07:51:07 UTC
684,Burlington,50857,NC,36.0956918,-79.43779909999999,2014-11-01 07:51:08 UTC,2014-11-01 07:51:08 UTC
685,Lakewood,50704,OH,41.4819932,-81.7981908,2014-11-01 07:51:09 UTC,2014-11-01 07:51:09 UTC
686,Sanford,50634,FL,28.8028612,-81.269453,2014-11-01 07:51:10 UTC,2014-11-01 07:51:10 UTC
687,Florissant,50561,MO,38.789217,-90.322614,2014-11-01 07:51:11 UTC,2014-11-01 07:51:11 UTC
688,Colton,50517,CA,34.0739016,-117.3136547,2014-11-01 07:51:12 UTC,2014-11-01 07:51:12 UTC
689,Grapevine,50471,TX,32.9342919,-97.0780654,2014-11-01 07:51:13 UTC,2014-11-01 07:51:13 UTC
690,Watsonville,50442,CA,36.910231,-121.7568946,2014-11-01 07:51:14 UTC,2014-11-01 07:51:14 UTC
691,Coconut Creek,50436,FL,26.2517482,-80.17893509999999,2014-11-01 07:51:15 UTC,2014-11-01 07:51:15 UTC
692,Pine Bluff,50408,AR,34.2284312,-92.00319549999999,2014-11-01 07:51:16 UTC,2014-11-01 07:51:16 UTC
693,Charleston,50302,WV,38.3498195,-81.6326234,2014-11-01 07:51:18 UTC,2014-11-01 07:51:18 UTC
694,Hanford,50103,CA,36.3274502,-119.6456844,2014-11-01 07:51:19 UTC,2014-11-01 07:51:19 UTC
695,Minnetonka,50081,MN,44.9211836,-93.4687489,2014-11-01 07:51:20 UTC,2014-11-01 07:51:20 UTC
696,Mishawaka,50026,IN,41.6619927,-86.15861559999999,2014-11-01 07:51:21 UTC,2014-11-01 07:51:21 UTC
697,Apple Valley,50004,MN,44.7319094,-93.21772000000001,2014-11-01 07:51:22 UTC,2014-11-01 07:51:22 UTC
698,Gilroy,49934,CA,37.0057816,-121.5682751,2014-11-01 07:51:23 UTC,2014-11-01 07:51:23 UTC
699,Berwyn,49919,IL,41.85058739999999,-87.7936685,2014-11-01 07:51:24 UTC,2014-11-01 07:51:24 UTC
700,Alpharetta,49903,GA,34.0753762,-84.2940899,2014-11-01 07:51:25 UTC,2014-11-01 07:51:25 UTC
701,Smyrna,49854,GA,33.8839926,-84.51437609999999,2014-11-01 07:51:26 UTC,2014-11-01 07:51:26 UTC
702,La Mirada,49809,CA,33.9172357,-118.0120086,2014-11-01 07:51:28 UTC,2014-11-01 07:51:28 UTC
703,Joplin,49775,MO,37.08422710000001,-94.51328099999999,2014-11-01 07:51:29 UTC,2014-11-01 07:51:29 UTC
704,Yucaipa,49750,CA,34.033625,-117.0430865,2014-11-01 07:51:30 UTC,2014-11-01 07:51:30 UTC
705,Bellevue,49699,NE,41.158611,-95.934167,2014-11-01 07:51:31 UTC,2014-11-01 07:51:31 UTC
706,Placentia,49692,CA,33.8722371,-117.8703363,2014-11-01 07:51:32 UTC,2014-11-01 07:51:32 UTC
707,Grand Junction,49688,CO,39.0638705,-108.5506486,2014-11-01 07:51:33 UTC,2014-11-01 07:51:33 UTC
708,Georgetown,49618,TX,30.6332618,-97.6779842,2014-11-01 07:51:34 UTC,2014-11-01 07:51:34 UTC
710,Mansfield,49579,OH,40.75839,-82.5154471,2014-11-01 07:51:39 UTC,2014-11-01 07:51:39 UTC
711,Oak Park,49557,IL,41.8850317,-87.7845025,2014-11-01 07:51:40 UTC,2014-11-01 07:51:40 UTC
712,Redmond,49548,WA,47.6739881,-122.121512,2014-11-01 07:51:42 UTC,2014-11-01 07:51:42 UTC
713,Brentwood,49480,CA,37.931868,-121.6957863,2014-11-01 07:51:43 UTC,2014-11-01 07:51:43 UTC
714,Glendora,49410,CA,34.1361187,-117.865339,2014-11-01 07:51:44 UTC,2014-11-01 07:51:44 UTC
715,Downers Grove,49250,IL,41.8089191,-88.01117459999999,2014-11-01 07:51:45 UTC,2014-11-01 07:51:45 UTC
716,Palm Beach Gardens,49227,FL,26.8233946,-80.13865469999999,2014-11-01 07:51:46 UTC,2014-11-01 07:51:46 UTC
717,Huntington,49185,WV,38.4192496,-82.44515400000002,2014-11-01 07:51:47 UTC,2014-11-01 07:51:47 UTC
718,San Ramon,49161,CA,37.7799273,-121.9780153,2014-11-01 07:51:48 UTC,2014-11-01 07:51:48 UTC
719,Bedford,49155,TX,32.844017,-97.1430671,2014-11-01 07:51:49 UTC,2014-11-01 07:51:49 UTC
720,Jupiter,48879,FL,26.9342246,-80.0942087,2014-11-01 07:51:50 UTC,2014-11-01 07:51:50 UTC
721,Poway,48858,CA,32.9628232,-117.0358646,2014-11-01 07:51:51 UTC,2014-11-01 07:51:51 UTC
722,Perth Amboy,48742,NJ,40.5067723,-74.2654234,2014-11-01 07:51:52 UTC,2014-11-01 07:51:52 UTC
723,Tigard,48713,OR,45.4312294,-122.7714861,2014-11-01 07:51:54 UTC,2014-11-01 07:51:54 UTC
724,Logan,48657,UT,41.7369803,-111.8338359,2014-11-01 07:51:55 UTC,2014-11-01 07:51:55 UTC
725,Alexandria,48639,LA,31.3112936,-92.4451371,2014-11-01 07:51:56 UTC,2014-11-01 07:51:56 UTC
726,Valdosta,48547,GA,30.8327022,-83.2784851,2014-11-01 07:51:57 UTC,2014-11-01 07:51:57 UTC
727,East Providence,48480,RI,41.8137116,-71.3700545,2014-11-01 07:51:58 UTC,2014-11-01 07:51:58 UTC
728,Wilson,48433,NC,35.7212689,-77.9155395,2014-11-01 07:51:59 UTC,2014-11-01 07:51:59 UTC
729,Albany,48081,OR,44.6365107,-123.1059282,2014-11-01 07:52:00 UTC,2014-11-01 07:52:00 UTC
730,Middletown,48030,CT,41.5623209,-72.6506488,2014-11-01 07:52:01 UTC,2014-11-01 07:52:01 UTC
731,Palm Springs,47952,CA,33.8302961,-116.5452921,2014-11-01 07:52:02 UTC,2014-11-01 07:52:02 UTC
732,Sheboygan,47895,WI,43.7508284,-87.71453,2014-11-01 07:52:03 UTC,2014-11-01 07:52:03 UTC
733,Hendersonville,47725,TN,36.3047735,-86.6199957,2014-11-01 07:52:05 UTC,2014-11-01 07:52:05 UTC
734,Greenwood,47720,IN,39.6136578,-86.10665259999999,2014-11-01 07:52:06 UTC,2014-11-01 07:52:06 UTC
735,Stillwater,47653,OK,36.1156071,-97.0583681,2014-11-01 07:52:07 UTC,2014-11-01 07:52:07 UTC
